location	cabin url	image url	caption	lat	lng	cabin_page_url
Porsgrunn, Norway	http://cabinporn.com/image/141376686265	http://40.media.tumblr.com/604a8874dd86e13313e857516108ef93/tumblr_o45fl6HgPm1qzwmsso1_1280.jpg	Cottage in coastal Porsgrunn, Norway. 	59.1385567	9.6555147	http://cabinporn.com/page/1
Jack English Cl, Upton, Northampton, Northamptonshire NN5 4UR, UK	http://cabinporn.com/image/140643871630	http://41.media.tumblr.com/7cbcb5c959e053c8864b773bd553af7a/tumblr_o3nace8ha71qzwmsso1_1280.jpg	RIP Jack English, who built this cabin in the Ventana Wilderness, California.	52.2424454	-0.9541084999999999	http://cabinporn.com/page/1
Slovenia	http://cabinporn.com/image/140392149015	http://40.media.tumblr.com/b72e8f306b4e224f538e9deafd2f492b/tumblr_o35udz4Huf1qzwmsso1_1280.jpg	A-Frame Sleeper in Blaguško, Slovenia.	46.151241	14.995463	http://cabinporn.com/page/1
	http://www.canopycamping.co.nz/listings/fossickers-hut-marlborough/	http://40.media.tumblr.com/d89dfc2f49648c1dee93ac94dab32bdf/tumblr_o2vc03PPSB1qzwmsso1_1280.jpg	Fossicker’s Hut is an off-grid, one-room cabin on the banks of the Wakamarina River in Marlborough, New Zealand.			http://cabinporn.com/page/1
Lofoten, Vågan, Norway	http://cabinporn.com/image/139919116525	http://41.media.tumblr.com/af9dda2db22c1dd588f8a45f035f2dbd/tumblr_o2xwaety4j1qzwmsso1_1280.jpg	A-Frame on Lofoten Island, Laupstad, Norway.	68.4711111	13.8636111	http://cabinporn.com/page/1
S Eastern Blvd, Fayetteville, NC, USA	http://cabinporn.com/image/139858415335	http://41.media.tumblr.com/29e9ebce74605a35a6ea37f5c68b8638/tumblr_o30d7i25Xy1qzwmsso1_1280.jpg	Sleeper cabin with attached outhouse in Eastern, North Carolina. Dubbed “The Cheer Stand.” Built for about $1,200. 	35.0317418	-78.8789537	http://cabinporn.com/page/1
Oregon, USA	http://cabinporn.com/image/139792971350	http://41.media.tumblr.com/50ca2bf53daa4485717d4e031dd0eef4/tumblr_o2yhqnMxuV1qzwmsso1_1280.jpg	Rustin cabin in Oregon, USA.	43.8041334	-120.5542012	http://cabinporn.com/page/1
Victory, NS B0T, Canada	http://cabinporn.com/image/138349916004	http://41.media.tumblr.com/29cbb29f321d03f64c3efa61b44b0957/tumblr_o0w5krI3aJ1qzwmsso1_1280.jpg	House in Victory, Nova Scotia, Canada.	44.566667	-65.466667	http://cabinporn.com/page/1
Victory, NS B0T, Canada	http://cabinporn.com/image/138286245719	http://40.media.tumblr.com/89d3682b6f56f495b9cd0626c9632a87/tumblr_o105swa9Bx1qzwmsso1_1280.jpg	Cabane de Girardin in the French Alps. 	44.566667	-65.466667	http://cabinporn.com/page/1
Trient, Switzerland	http://cabinporn.com/image/138158087352	http://36.media.tumblr.com/d82cd55520017ac350e90de509df6297/tumblr_o0nhm2RwRX1qzwmsso1_1280.jpg	Bee house in Trient, Wallis, Switzerland.	46.0556748	6.996041	http://cabinporn.com/page/1
Salzkammergut Str., Austria	http://cabinporn.com/image/138093004271	http://41.media.tumblr.com/144b26748a86380f106e3901cbfe9d4c/tumblr_o0ect8KSqI1qzwmsso1_1280.jpg	Huts at Schartenalm in Salzkammergut, Austria.	47.7998368	13.7804041	http://cabinporn.com/page/2
Slovenia	http://cabinporn.com/image/138027547145	http://36.media.tumblr.com/907d80527f1a88cf75037568b9b28955/tumblr_o0f9csr3ms1qzwmsso1_1280.jpg	Cabin near Tržič, Slovenia.	46.151241	14.995463	http://cabinporn.com/page/2
Cypress Mountain, Coquitlam, BC V3E, Canada	http://cabinporn.com/image/137956955656	http://40.media.tumblr.com/a45acea6dc876a8308c25a9f4b0ebe60/tumblr_o05rswLUL41qzwmsso1_1280.jpg	Cabin on Cypress Mountain, British Columbia, Canada.	49.3388888	-122.8077777	http://cabinporn.com/page/2
Minnewaska State Park, 5281 Rte 44-55, Kerhonkson, NY 12446, USA	http://cabinporn.com/image/137886705538	http://41.media.tumblr.com/80ab2c85e640f8d0fa34de2e322ca20f/tumblr_msztg2APZa1qzwmsso1_1280.jpg	Abandoned cabin in Minnewaska State Park, New York.	41.72366239999999	-74.27041249999999	http://cabinporn.com/page/2
Triglav National Park, 4265 Bohinjsko jezero, Slovenia	http://www.lisasmit.tumblr.com	http://41.media.tumblr.com/7aea2cceecb3f72a7f8e255859a7e3a8/tumblr_o0qyvfkDku1qzwmsso1_1280.jpg	Cabin in Triglav National Park, Slovenia.	46.3341834	13.8286923	http://cabinporn.com/page/2
Healy, AK, USA	http://cabinporn.com/image/137756392650	http://40.media.tumblr.com/ac9b21b8e3f1ea6526f53dfb76bed69b/tumblr_o0nmk8QiwU1qzwmsso1_1280.jpg	Guest cabin in Healy, Alaska.	63.8697384	-149.0215109	http://cabinporn.com/page/2
Bihor Mountains, Romania	http://cabinporn.com/image/137692460622	http://40.media.tumblr.com/a058b098e6556ccd60682c2057ae4588/tumblr_o1623jIeTr1qzwmsso1_1280.jpg	Cabin in the Bihor Mountains, Romania.	46.45	22.683333	http://cabinporn.com/page/2
Santa Ynez, CA, USA	http://cabinporn.com/image/137627567023	http://41.media.tumblr.com/14003432145a97bfc778533ce4be100d/tumblr_o0rbnhQdEa1qzwmsso1_1280.jpg	Cabin surrounded by coast live oaks near Santa Ynez, California. 	34.6144313	-120.079868	http://cabinporn.com/page/2
Mellen, WI, USA	http://cabinporn.com/image/137558841638	http://40.media.tumblr.com/b478b0cfd201e873bdf0015aa5b29325/tumblr_mvgp8f1k6g1qzwmsso1_1280.jpg	Dugout in Copper Falls State Park in Mellen, Wisconsin.  	46.325506	-90.6610165	http://cabinporn.com/page/2
Braunwald, Glarus Süd, Switzerland	http://cabinporn.com/image/137487688060	http://41.media.tumblr.com/5a32b955905a69b0add1ff9836ba28db/tumblr_nzis9owbIr1qzwmsso1_1280.jpg	Cabin in Braunwald, Switzerland.	46.9393043	8.9981219	http://cabinporn.com/page/2
Braunwald, Glarus Süd, Switzerland	http://cabinporn.com/image/137418689840	http://41.media.tumblr.com/31aee7a374a2208ea67841a3e34813a2/tumblr_nzzjzvp2uM1qzwmsso1_1280.jpg	Off-grid cabin in northern Sweden.	46.9393043	8.9981219	http://cabinporn.com/page/3
Italy	http://cabinporn.com/image/137353886593	http://40.media.tumblr.com/1dd586014b811578ebc0a0a5bc40d6ee/tumblr_o0afjmtzWW1qzwmsso1_1280.jpg	Cabin in the Dolomites at Würzjoch, Italy.	41.87194	12.56738	http://cabinporn.com/page/3
Saranac Lake, NY, USA	http://cabinporn.com/image/137289637210	http://41.media.tumblr.com/7431b0597f57963262825789d72a32bd/tumblr_o0b3tgVaxI1qzwmsso1_1280.jpg	Cabin on Saranac Lake, New York. 	44.329496	-74.1312662	http://cabinporn.com/page/3
Isle of Lewis, United Kingdom	http://cabinporn.com/image/137226594275	http://41.media.tumblr.com/72bf53833ab1090ba1b2d3a758fa5113/tumblr_o0r1v8mwU11qzwmsso1_1280.jpg	Mangersta stone bothy in Lewis, Scotland. 	58.24157529999999	-6.661592499999999	http://cabinporn.com/page/3
	http://cabinporn.com/image/137224957735	http://41.media.tumblr.com/478ad675711b51ab837c937038efc009/tumblr_o0v1udDPA71qzwmsso1_1280.jpg	Cabin in the Dinaric Mountains, Bosnia & Herzegovina.			http://cabinporn.com/page/3
Grindavik, Iceland	http://cabinporn.com/image/137161839924	http://41.media.tumblr.com/tumblr_lyhajgOfN71qzwmsso1_1280.jpg	Beach house in Grindavik, Iceland.	63.8441808	-22.4383818	http://cabinporn.com/page/3
Lofoten, Vågan, Norway	http://cabinporn.com/image/136953648743	http://40.media.tumblr.com/tumblr_m3qi6kbwjz1qzwmsso1_1280.jpg	Stone cabin near Kvalvika beach in the Lofoten Islands, Norway. 	68.4711111	13.8636111	http://cabinporn.com/page/3
Ozarks, Kentucky Township, AR 72752, USA	http://cabinporn.com/image/136887095962	http://41.media.tumblr.com/12473342cf7ef3522104f4a7f4675ce6/tumblr_nxnoyjd0Hv1qzwmsso1_1280.jpg	Hideout in the Ozark Mountains, Arkansas. 	35.863611	-93.493056	http://cabinporn.com/page/3
Pyrenees Dr, Spanish Springs, NV 89441, USA	http://500px.com/photo/22527941?from=set/583689	http://36.media.tumblr.com/4bf940c0e5eb71b7a2e74802f69fdf2d/tumblr_mqbhme0ZK61qzwmsso1_1280.jpg	Stone hut, Spanish Pyrenees.	39.65125	-119.6400267	http://cabinporn.com/page/3
Bracebridge, ON, Canada	http://cabinporn.com/image/136753266012	http://36.media.tumblr.com/110db0c46c90cc4ee5da1b67557d1f43/tumblr_nzu6xc6opy1qzwmsso1_1280.jpg	Cabin in Bracebridge, Muskoka, Canada. 	45.0389565	-79.3078787	http://cabinporn.com/page/3
Mulanje Massif, Malawi	http://cabinporn.com/image/136685096222	http://41.media.tumblr.com/90b7ad13af5355afa6bdc3080c3149d4/tumblr_nzgdneVFoR1qzwmsso1_1280.jpg	Porter’s cabin near Mount Mulanje, Malawi.	-15.9486111	35.5905556	http://cabinporn.com/page/4
25080 Valvestino BS, Italy	http://cabinporn.com/image/136614799575	http://41.media.tumblr.com/140a9bfa72fda8cb84c90f14f2185155/tumblr_nz5zjcQgh31qzwmsso1_1280.jpg	A-frame at Cima Rest in Valvestino, Italy.	45.7589124	10.5822978	http://cabinporn.com/page/4
Saluda, NC 28773, USA	http://cabinporn.com/image/136540344104	http://41.media.tumblr.com/5c703bfd2a17bb373bb9887fc0016271/tumblr_o01xloFAPZ1qzwmsso1_1280.jpg	Restored fixer-upper in Saluda, North Carolina.	35.2362264	-82.3492839	http://cabinporn.com/page/4
	https://www.facebook.com/DraganDrobacPhotography/	http://36.media.tumblr.com/54cc12a75d073c705fb767f66ad5e596/tumblr_nztvcxT34d1qzwmsso1_1280.jpg	Cabin on Tara Mountain, Serbia.			http://cabinporn.com/page/4
Big Cottonwood Canyon, Cottonwood Heights, UT 84121, USA	http://jakeallisonphoto.tumblr.com/	http://41.media.tumblr.com/521aa323ba2fcb2560a005fd998822e0/tumblr_o07kcsPGyQ1qzwmsso1_1280.jpg	Cabin in Big Cottonwood Canyon, Utah.	40.61974379999999	-111.7892627	http://cabinporn.com/page/4
Soboth, Austria	http://cabinporn.com/image/136333832866	http://41.media.tumblr.com/513c130d8e1b6bebba2925fe55930e7e/tumblr_nygtv0LiTB1qzwmsso1_1280.jpg	Fixer-upper in Soboth, Carinthia, Austria. Contributed by Lisa Edi.	46.6824373	15.0736076	http://cabinporn.com/page/4
Galeton, PA 16922, USA	http://cabinporn.com/image/136264350811	http://40.media.tumblr.com/e389ea1b09dfb47d60b57f2a95e464d3/tumblr_nzejv3le9k1qzwmsso1_1280.jpg	Hunting cabin near Galeton, Pennsylvania.	41.7331245	-77.64193100000001	http://cabinporn.com/page/4
Brissago, Switzerland	http://cabinporn.com/image/136192511644	http://40.media.tumblr.com/d2d2df2a392b26bc3dce5e64c5d1e12c/tumblr_nzeotjY1Yd1qzwmsso1_1280.jpg	La Capanna al Legn in Brissago, Switzerland.	46.1200438	8.7112657	http://cabinporn.com/page/4
Lyngen Alps, Lyngen, Norway	http://cabinporn.com/image/136119883615	http://41.media.tumblr.com/6ea6c1aefe15672d28be7484ab071fab/tumblr_nye5fiZHQD1qzwmsso1_1280.jpg	Cabin on the Lyngen Alps, Troms, Norway.	69.78999999999999	20.17	http://cabinporn.com/page/4
Val Bregaglia, 23029 Villa di Chiavenna, Province of Sondrio, Italy	http://cabinporn.com/image/136048446785	http://41.media.tumblr.com/68129ca62e6a6d79464caac4c318ad5c/tumblr_nzeohmx5O21qzwmsso1_1280.jpg	Stone cabin in the village of Savogno in Val Bregaglia, Italy.	46.3321696	9.5141909	http://cabinporn.com/page/4
Iceland	http://cabinporn.com/image/135981016373	http://40.media.tumblr.com/c57cea0bc23055471cb935a8ecc86648/tumblr_nyvw906Pb31qzwmsso1_1280.jpg	Cabin in Árbæjarvegur, Iceland. 	64.963051	-19.020835	http://cabinporn.com/page/5
Sarntal, Province of Bolzano - South Tyrol, Italy	http://cabinporn.com/image/135916295434	http://36.media.tumblr.com/066af11c25a76d80948456fbdc8bbcfb/tumblr_nzkalkcmGv1qzwmsso1_1280.jpg	Alpine shelter along the Tramin Alm in Sarntal, Italy.	46.70315069999999	11.4023372	http://cabinporn.com/page/5
Ustaoset, Norway	http://cabinporn.com/image/135853692430	http://40.media.tumblr.com/f7544026e343dff887d505b4b34e6b91/tumblr_nx8oqafOoJ1qzwmsso1_1280.jpg	Earthen roof house in Ustaoset, Norway.	60.4983971	8.0445328	http://cabinporn.com/page/5
Hemsedal, Norway	http://cabinporn.com/image/135785473288	http://41.media.tumblr.com/7ab38ee9067f35d469148db73e7378f9/tumblr_nzh3m1GF3R1qzwmsso1_1280.jpg	House in Hemsedal, Norway.	60.8630722	8.5523331	http://cabinporn.com/page/5
Kamnik, Slovenia	http://cabinporn.com/image/135716827754	http://36.media.tumblr.com/f527d7517ec4af8de72efd9c18129cab/tumblr_nznvzokodp1qzwmsso1_1280.jpg	Kamnik Lodge at Kamnik Saddle, Slovenia.	46.2221964	14.6072968	http://cabinporn.com/page/5
Concord, MA, USA	http://cabinporn.com/image/135578479058	http://41.media.tumblr.com/ac272443146d8a9e362a1e8e4557cede/tumblr_nydzlnFTR41qzwmsso1_1280.jpg	Lean-to in Concord, Massachusetts.	42.4603719	-71.3489484	http://cabinporn.com/page/5
	http://cabinporn.com/image/135512811546	http://41.media.tumblr.com/75d11bdaadd850971a574ea262f7e6ac/tumblr_nz1rxcY9nf1qzwmsso1_1280.jpg	Stone home on Inis Meáin, an island in Connacht, Ireland.			http://cabinporn.com/page/5
Southern Reservoir, Otago 9076, New Zealand	http://cabinporn.com/image/135450348912	http://40.media.tumblr.com/tumblr_lyozvfROqv1qzwmsso1_1280.jpg	Skiing cabin on Nevis Rd. in Southern Otago, New Zealand. 	-45.8891489	170.4489662	http://cabinporn.com/page/5
Southern Reservoir, Otago 9076, New Zealand	http://cabinporn.com/image/135387976067	http://40.media.tumblr.com/97c089a77e627bd2b545796272e9b1f2/tumblr_mohrjfGyiw1qzwmsso1_1280.jpg	Tin fishing shack in Australia.	-45.8891489	170.4489662	http://cabinporn.com/page/5
Lofoten, Norway	http://cabinporn.com/image/135324576440	http://40.media.tumblr.com/76b99b8aba5bc406263af3980cb17ed9/tumblr_nzf2t7wTMC1qzwmsso1_1280.jpg	House in the Lofoten, Norway. 	68.07960899999999	13.3741914	http://cabinporn.com/page/6
Gudbrandsdalen, Dovre, Norway	http://cabinporn.com/image/135192569167	http://40.media.tumblr.com/28c0290ef04c15a492b46cfb1ac4b97c/tumblr_nybuchqQFR1qzwmsso1_1280.jpg	Cabin above Lake Skjervongen in Gulbrandsdal, Norway. 	62	9.2333333	http://cabinporn.com/page/6
Norrsken Dr, Evesham Township, NJ 08053, USA	http://cabinporn.com/image/135122184867	http://40.media.tumblr.com/820da408b3f3c8191379d5b779e8953b/tumblr_nxystlV0yb1qzwmsso1_1280.jpg	Cabin in Jämtland, Norrsjö, Sweden.	39.8401354	-74.8702864	http://cabinporn.com/page/6
Norrsken Dr, Evesham Township, NJ 08053, USA	http://amzn.to/1SUuxck	http://40.media.tumblr.com/df48fd45896868b3b2e9f4f3535e9ac2/tumblr_nz9rkvo9oI1qzwmsso1_1280.jpg	The Cabin Porn Book.	39.8401354	-74.8702864	http://cabinporn.com/page/6
East Beskids, Palota, Slovakia	http://cabinporn.com/image/135054303949	http://40.media.tumblr.com/b2ebfce2b6111145229df5f6fecb6fcf/tumblr_nxypo27wke1qzwmsso1_1280.jpg	Cabin in the Żywiec Beskid Mountains, Poland.	49.25	22	http://cabinporn.com/page/6
North Island	http://cabinporn.com/image/134990475871	http://40.media.tumblr.com/f77e3c5b4c08b34581369d9eabce0996/tumblr_nyltg8X8av1qzwmsso1_1280.jpg	Beach house on Muriwai Beach on the North Island, New Zealand. 	-37.89654609999999	175.6023643	http://cabinporn.com/page/6
Lettenberg, 8487, Switzerland	http://cabinporn.com/image/134927033195	http://41.media.tumblr.com/3b6cebbb4b0854442d11175d9439145b/tumblr_nwxebv7FQa1qzwmsso1_1280.jpg	Cabin in Lettenberg, Switzerland.	47.4489283	8.8384664	http://cabinporn.com/page/6
Reine, Norway	http://cabinporn.com/image/134862741539	http://36.media.tumblr.com/19ff043f90dafe437dfe417aa83838d0/tumblr_nyhy78QMsl1qzwmsso1_1280.jpg	Fishing cabin in Reine, Lofoten Norway.	67.9323866	13.0887329	http://cabinporn.com/page/6
Stockholm, Sweden	http://cabinporn.com/image/134798525311	http://40.media.tumblr.com/05a5da53d5792ce6158c055c2c841636/tumblr_mmwoz2IRdB1qzwmsso1_1280.jpg	Fixer-upper in Stockholm, Sweden.	59.32932349999999	18.0685808	http://cabinporn.com/page/6
Vikafjellet, Snillfjord, Norway	http://cabinporn.com/image/134662606380	http://40.media.tumblr.com/3796b2a46425330941c34267e6a122e8/tumblr_ny7wcn4Pxa1qzwmsso1_1280.jpg	Cabin on Vikafjellet, Norway. 	63.33514199999999	9.2484824	http://cabinporn.com/page/7
Sullivan County, NY, USA	http://cabinporn.com/image/134596286380	http://41.media.tumblr.com/fc4511bbe8022b3c02907a30d6b93d80/tumblr_nyr3pxPlV41qzwmsso1_1280.jpg	A-frame in Sullivan County, New York.	41.6897493	-74.7805192	http://cabinporn.com/page/7
Pelican, AK 99832, USA	http://cabinporn.com/image/134533593078	http://41.media.tumblr.com/e15bb98c51eb4f0c6c46ae287cf2743d/tumblr_nybvpdVBvu1qzwmsso1_1280.jpg	Cabin being relocated on the Lisianski Inlet near Pelican, Alaska.	57.9608333	-136.2275	http://cabinporn.com/page/7
	http://cabinporn.com/image/134469680972	http://40.media.tumblr.com/c4706e8905ba0d734997585e54fc4e44/tumblr_nyl7gr2Uz41qzwmsso1_1280.jpg	Cottage in the Northern Black Forest, Germany.			http://cabinporn.com/page/7
Aït Ben Haddou, Morocco	http://cabinporn.com/image/134404705287	http://40.media.tumblr.com/479027e17d015f4ebb1d0d9434b6d4c0/tumblr_mmxnlxctBJ1qzwmsso1_1280.jpg	Earthen hut in Aït Benhaddou, Morocco.	31.047043	-7.131899600000001	http://cabinporn.com/page/7
Seward, AK 99664, USA	http://cabinporn.com/image/134339011386	http://40.media.tumblr.com/b71dbdbb26f35d28f6d7dff7ea8db469/tumblr_nylyc2IsOi1qzwmsso1_1280.jpg	A-frame near Seward, Alaska. 	60.10416669999999	-149.4422222	http://cabinporn.com/page/7
Seward, AK 99664, USA	http://cabinporn.com/image/134273998145	http://40.media.tumblr.com/1bb72b5499e807989d6e8795b29a0ca6/tumblr_nya915C2Fr1qzwmsso1_1280.jpg	Barrel hut in the Mátra Protected Area of Northern Hungary.	60.10416669999999	-149.4422222	http://cabinporn.com/page/7
Styria, Austria	http://cabinporn.com/image/134203029822	http://36.media.tumblr.com/a43c139face2575c167fd9c1e6c1bab1/tumblr_ntxx46AwHm1qzwmsso1_1280.jpg	Hay barn near Lake Giglach in Styria, Austria.	47.3593442	14.4699827	http://cabinporn.com/page/7
Whitefield, ME, USA	http://cabinporn.com/image/134132347224	http://40.media.tumblr.com/506ea96c289c9c04473f90abb33e1955/tumblr_nxiqjsDFTK1qzwmsso1_1280.jpg	Old barn in Whitefield, Maine. 	44.1700735	-69.6253222	http://cabinporn.com/page/7
Landmannalaugar, Iceland	http://cabinporn.com/image/134065170147	http://36.media.tumblr.com/c473a9e4b7a8f3d83ae167134aa57c34/tumblr_nthmqdsueS1qzwmsso1_1280.jpg	A-frame in Landmannalaugar, Iceland.	63.983	-19.067	http://cabinporn.com/page/7
Via di Pezza, 67048 Rocca di Mezzo AQ, Italy	http://cabinporn.com/image/134001554380	http://40.media.tumblr.com/475971877197b87b9d2a9870eef33b38/tumblr_nxc92cU5fR1qzwmsso1_1280.jpg	Cabin in Piani di Pezza, Abruzzo, Italy.	42.20001449999999	13.5186946	http://cabinporn.com/page/8
Villa Cerro Castillo, Coyhaique, XI Región, Chile	http://cabinporn.com/image/133935771728	http://36.media.tumblr.com/06b0c634292fe5460fc3e1f69b179970/tumblr_ny9verGf7m1qzwmsso1_1280.jpg	Cabin in Villa Cerro Castillo, Chile.	-46.1208678	-72.1535155	http://cabinporn.com/page/8
San Carlos de Bariloche, Río Negro, Argentina	http://cabinporn.com/image/133869790300	http://41.media.tumblr.com/tumblr_m7fecfqbT21qzwmsso1_1280.jpg	Cabin in San Carlos de Bariloche, Argentina.	-41.1334722	-71.3102778	http://cabinporn.com/page/8
Jackman, ME 04945, USA	http://cabinporn.com/image/133802620099	http://41.media.tumblr.com/8218fb2ca774fb8ca0e5140f66f1384f/tumblr_nx1t8dQR3C1qzwmsso1_1280.jpg	Cabin on the Moose River near Jackman, Maine. 	45.6240392	-70.2521512	http://cabinporn.com/page/8
Parry Sound, ON, Canada	http://cabinporn.com/image/133732253727	http://40.media.tumblr.com/a0c0603f101cdf0e8a332552b71f67b1/tumblr_mnu4d9oKJn1qzwmsso1_1280.jpg	Cabin on Range Island near Parry Sound, Ontario, Canada.	45.3473925	-80.03478299999999	http://cabinporn.com/page/8
Iceland St, Jerusalem, Israel	http://cabinporn.com/image/133664136368	http://36.media.tumblr.com/65eb9a7f1e0e39a481a48af7e37687f3/tumblr_nwv9trIVVf1qzwmsso1_1280.jpg	Baldvinsskali Hut on Fimmvörðuháls Pass, Iceland.	31.75909789999999	35.1665329	http://cabinporn.com/page/8
Sweden	http://cabinporn.com/image/133600298869	http://41.media.tumblr.com/867b4c887b0a801f97157bda99fe2728/tumblr_mpq0kt62A41qzwmsso1_1280.jpg	Circular cabin and tub in Prässebo, Sweden.	60.12816100000001	18.643501	http://cabinporn.com/page/8
Humboldt County, CA, USA	http://cabinporn.com/image/133472215605	http://41.media.tumblr.com/c49bdfdd82fe18f1f08bd17b5256ff64/tumblr_nv0fi4FvVp1qzwmsso1_1280.jpg	Artist’s studio in Humboldt County, California.	40.7450055	-123.8695086	http://cabinporn.com/page/8
Kalimantan	http://cabinporn.com/image/133408873622	http://36.media.tumblr.com/36620d364c08b0060ecfc027b3394dc4/tumblr_nxbt2siSA31qzwmsso1_1280.jpg	Farmhouse in Sarawak, Borneo.	0.9618833999999999	114.5548495	http://cabinporn.com/page/8
Kalimantan	http://cabinporn.com/image/133343872392	http://41.media.tumblr.com/bb8389102b446b3147663198ed6e6a8a/tumblr_nx3xotJFbQ1qzwmsso1_1280.jpg	A-frame in Tasmania.	0.9618833999999999	114.5548495	http://cabinporn.com/page/9
Iceland	http://cabinporn.com/image/133204508294	http://36.media.tumblr.com/11f1f271048e4303666b44a3700fb5ab/tumblr_nt4cmzpeI61qzwmsso1_1280.jpg	Emergency shelter in Westfjörd, Iceland.	64.963051	-19.020835	http://cabinporn.com/page/9
McHenry, IL, USA	http://cabinporn.com/image/133139448630	http://36.media.tumblr.com/109e1dc93acb234b38914b4ad078b1dc/tumblr_nqdmnvNlyZ1qzwmsso1_1280.jpg	Historic pioneer hut in McHenry, Illinois.	42.333355	-88.2667534	http://cabinporn.com/page/9
Del Norte, CO 81132, USA	http://cabinporn.com/image/133008927320	http://40.media.tumblr.com/44eba153b8a732fc81aac63c20e951ba/tumblr_nurx7t2yP31qzwmsso1_1280.jpg	Solar-powered cottage in Del Norte, Colorado.	37.6788919	-106.3533683	http://cabinporn.com/page/9
Jutland, 6040 Egtved, Denmark	http://cabinporn.com/image/132943251893	http://40.media.tumblr.com/2aec70ea57b93b9c496a4bc40503e725/tumblr_ntyaohVPwk1qzwmsso1_1280.jpg	Summer house on Holmsland Dunes in West Jutland, Denmark.	55.62954999999999	9.201050000000002	http://cabinporn.com/page/9
Jutland, 6040 Egtved, Denmark	http://amzn.to/1J70jlQ	http://49.media.tumblr.com/3c88f12401a71a59dc1fd04927cf76bd/tumblr_nxj8rsc6WC1qzwmsso1_1280.gif	Flip through the Cabin Porn book: http://amzn.to/1J70jlQ	55.62954999999999	9.201050000000002	http://cabinporn.com/page/9
France	http://cabinporn.com/image/132806609276	http://40.media.tumblr.com/13022f22da16d5a75a1c3a98c68a67da/tumblr_nxbcf69XyZ1qzwmsso1_1280.jpg	A-frame in Salins-les-bains, France. 	46.227638	2.213749	http://cabinporn.com/page/9
Blakeney, Norfolk, UK	http://cabinporn.com/image/132736676120	http://41.media.tumblr.com/5a166bd8c7f3ab922f0a973058ca0988/tumblr_nx8ourk5s81qzwmsso1_1280.jpg	Floating cabin in Blakney Norfolk, United Kingdom. 	52.953685	1.014356	http://cabinporn.com/page/9
9470 Gratangen, Norway	http://cabinporn.com/image/132671601700	http://41.media.tumblr.com/6294542f4470538dffff23ddb0e7d1ee/tumblr_nx91sscUeq1qzwmsso1_1280.jpg	Earthhouse in Gratangen, Troms, Norway.	68.69544789999999	17.4912636	http://cabinporn.com/page/9
Patagonia, AZ 85624, USA	http://cabinporn.com/image/132607969474	http://41.media.tumblr.com/2f74a257e59d725f316897ec7dcbd599/tumblr_nrmte28Frn1qzwmsso1_1280.jpg	Log cabin in Sector Río Ñadis, Patagonia, Chile.	31.5395378	-110.7561963	http://cabinporn.com/page/10
Vatne, Norway	http://cabinporn.com/image/132544077469	http://36.media.tumblr.com/20aed0e0be7c63d40d83711ff0716ba5/tumblr_nrhk9vWO1p1qzwmsso1_1280.jpg	Farmhouse in Vatnane, Norway.	62.5581792	6.6187002	http://cabinporn.com/page/10
Chios, Chios, Greece	http://cabinporn.com/image/132479553711	http://36.media.tumblr.com/41451768c0f8b205030bc934b4111943/tumblr_nruqkwoMjX1qzwmsso1_1280.jpg	Fisherman’s hut in Agia Fotini on Chios Island, Greece.	38.36818239999999	26.1310056	http://cabinporn.com/page/10
34257 Palenzuela, Palencia, Spain	http://cabinporn.com/image/132475331440	http://41.media.tumblr.com/11de242c3fba754e35e135f5abba98c9/tumblr_msv04u5O1x1qzwmsso1_1280.jpg	Subterranean cabin in Palenzuela, Spain.	42.0961086	-4.1302671	http://cabinporn.com/page/10
Ulvik, Norway	http://cabinporn.com/image/132413196799	http://40.media.tumblr.com/57f8f65887a39ef021e5cb0a41bb393e/tumblr_nw2w1lJpRj1qzwmsso1_1280.jpg	Abandoned hunting cabin in Ulvik, Norway.	60.5692306	6.916875099999999	http://cabinporn.com/page/10
	http://cabinporn.com/image/132338192864	http://36.media.tumblr.com/44766d4cbecefc465b43633c308ca01e/tumblr_nrhk8hYKE01qzwmsso1_1280.jpg	Kvitlen mountain lodge, a self service cabin built by the Norwegian Trekking Association in the Bjerkreim, Norway. 			http://cabinporn.com/page/10
Autostrada Transilvania, Romania	http://cabinporn.com/image/132276401719	http://41.media.tumblr.com/4e1895e4016884a280956acb77d82e0e/tumblr_my7p2pSnva1qzwmsso1_1280.jpg	An old bakehouse in Transylvania, Romania. 	46.5233572	23.9001606	http://cabinporn.com/page/10
Belgrade, Serbia	http://cabinporn.com/image/132088099805	http://41.media.tumblr.com/65874f05a7dac7c93b8f036d0eae58b2/tumblr_n29j13FoPe1qzwmsso1_1280.jpg	The Rurban Shack in Belgrade, Serbia.	44.786568	20.4489216	http://cabinporn.com/page/10
New Sweden Rd NE, Bainbridge Island, WA 98110, USA	http://cabinporn.com/image/132022517759	http://41.media.tumblr.com/7b4eea9b13643f78c8927e5c4db1b199/tumblr_ngw9laU3H11qzwmsso1_1280.jpg	Shelters along Kings Trail, Northern Sweden. 	47.60963659999999	-122.5156589	http://cabinporn.com/page/10
Buyant, Mongolia	http://cabinporn.com/image/131956178265	http://41.media.tumblr.com/tumblr_mb7yq7shtA1qzwmsso1_1280.jpg	Cabin on the steppe in Buyant, Mongolia. 	48.5753973	89.55117190000001	http://cabinporn.com/page/11
Ustaoset, Norway	http://cabinporn.com/image/131885011230	http://40.media.tumblr.com/a2c1ef9ef830107932d3124b7524d2c5/tumblr_nv0wpkQrCy1qzwmsso1_1280.jpg	Cabin in Ustaoset, Norway.	60.4983971	8.0445328	http://cabinporn.com/page/11
Italy	http://cabinporn.com/image/131816936729	http://41.media.tumblr.com/274fef9301baf15af1278bc706bf0fb6/tumblr_nwhju5iR5y1qzwmsso1_1280.jpg	Stilts house on Braies Lake in Südtirol, Italy.	41.87194	12.56738	http://cabinporn.com/page/11
Wellington, New Zealand	http://cabinporn.com/image/131752835785	http://41.media.tumblr.com/da5c1a5112ca67d13c76af0a62b36efd/tumblr_mq7zbguZln1qzwmsso1_1280.jpg	Cabin in Wellington, New Zealand.	-41.2864603	174.776236	http://cabinporn.com/page/11
Beaver Island, Beaver Island, MI, USA	http://cabinporn.com/image/131699877175	http://41.media.tumblr.com/2cd9a1dd4cd369f3bbd10a08fa746873/tumblr_mqcb8ydUcQ1qzwmsso1_1280.jpg	Stainless steel sided cabin on Beaver Island, Michigan.	45.6467627	-85.5520726	http://cabinporn.com/page/11
Marbletown, NY 12401, USA	http://cabinporn.com/image/131689547348	http://40.media.tumblr.com/f65cac1834e1797ca8fd78e3bc1ef2c3/tumblr_nu5uv7S84W1qzwmsso1_1280.jpg	Treehouse near Esopus Creek in Marbleton, New York.	41.883426	-74.1131984	http://cabinporn.com/page/11
Royse City, TX, USA	http://cabinporn.com/image/131625082565	http://40.media.tumblr.com/2afc8681b4bf4d29b14900eb3037b0ff/tumblr_nwi4v5BTjr1qzwmsso1_1280.jpg	Abandoned Futuro House in Royse City, Texas. 	32.9751204	-96.3324817	http://cabinporn.com/page/11
Costa de la Luz, 41200 Alcalá del Río, Sevilla, Spain	http://cabinporn.com/image/131619995620	http://40.media.tumblr.com/f0ff636c711d1e5b5f5d7aacbdeacdbe/tumblr_nw9zm3UUN41qzwmsso1_1280.jpg	Low cost straw-bale cabin in Andalucia, Costa de la Luz, Spain.	37.5166596	-5.9812277	http://cabinporn.com/page/11
Battery Lake, Greater Madawaska, ON K0J, Canada	http://cabinporn.com/image/131561684750	http://40.media.tumblr.com/22a8ffead81bc3c4ed3559377c8e48c7/tumblr_nwdprshWIn1qzwmsso1_1280.jpg	Cabin on Battery Lake, Ontario, Canada.	45.23004359999999	-76.7660325	http://cabinporn.com/page/11
Lake Baikal, Russia	http://cabinporn.com/image/131559702484	http://36.media.tumblr.com/fe3109a8e5f0e497332db6c71c64f062/tumblr_nj5nzko2hO1qzwmsso1_1280.jpg	Fishermen shelter on Lake Baikal, Russia.	53.5587003	108.1649964	http://cabinporn.com/page/11
Poolewe, Achnasheen, Highland IV22, UK	http://cabinporn.com/image/131494084963	http://40.media.tumblr.com/908a13969c082f6aab1deb24a9b13e25/tumblr_ns72xaT5vZ1qzwmsso1_1280.jpg	Crofter’s bothe in Poolewe, NW Highlands, Scotland.	57.765127	-5.605190899999999	http://cabinporn.com/page/12
Farø, Vordingborg Municipality, Denmark	http://cabinporn.com/image/131491678200	http://40.media.tumblr.com/4c2c3185e7fc3dc84d03280f07a26d11/tumblr_nvy8s8vDPx1qzwmsso1_1280.jpg	Domes on the Faroe Islands, Denmark.	54.9508691	11.9897761	http://cabinporn.com/page/12
Synevyr, Zakarpats'ka oblast, Ukraine	http://cabinporn.com/image/131430510855	http://41.media.tumblr.com/5bc090316ee6e2111efb62b2e3d0a2b5/tumblr_nvm079yE5d1qzwmsso1_1280.jpg	Cabins near Lake Synevyr, Ukraine.	48.617	23.684	http://cabinporn.com/page/12
	http://cabinporn.com/image/131423243965	http://41.media.tumblr.com/44df2c4394325def097c415596bc5e49/tumblr_nkk8wnukw91qzwmsso1_1280.jpg	Mountain cabin in Āhar, near Tehran, Iran.			http://cabinporn.com/page/12
Zug, Switzerland	http://cabinporn.com/image/131354609702	http://41.media.tumblr.com/86f30a40259a7e6648ed059c90b8431e/tumblr_mzez87RpGs1qzwmsso1_1280.jpg	Cabin in Zug, Switzerland.	47.1661672	8.5154946	http://cabinporn.com/page/12
Bozeman, MT, USA	http://cabinporn.com/image/131289220930	http://41.media.tumblr.com/tumblr_mbwklk5ym81qzwmsso1_1280.jpg	Maxey Cabin in the Gallatin National Forest near Bozeman, Montana.	45.6769979	-111.0429339	http://cabinporn.com/page/12
Finland	http://cabinporn.com/image/131225137492	http://41.media.tumblr.com/711c04fe0ca5bb225d7540c8de863cb3/tumblr_mxk9jgvsTv1qzwmsso1_1280.jpg	A-frame near the town of Mäntyharju, Finland.	61.92410999999999	25.748151	http://cabinporn.com/page/12
Finland	http://cabinporn.com/image/131160228112	http://41.media.tumblr.com/822e92af98bd9444643e373e7828e0dc/tumblr_nqv4wl7KJt1qzwmsso1_1280.jpg	Small cabin in the Blue Ridge Mountains of North Carolina.	61.92410999999999	25.748151	http://cabinporn.com/page/12
Karwendel, 6215, Austria	http://cabinporn.com/image/131093934210	http://40.media.tumblr.com/fe3023b01d39df3d9edf1a26ea464328/tumblr_nsklsdca5X1qzwmsso1_1280.jpg	Bivvy made from a repurposed snowcat in the Karwendel Mountains, Austria. 	47.4166667	11.4666667	http://cabinporn.com/page/12
Karwendel, 6215, Austria	http://cabinporn.com/image/131025216134	http://36.media.tumblr.com/026cd9c86a7973c21f18e7378d2250c5/tumblr_nstx5oip6Y1qzwmsso1_1280.jpg	Off-grid cabin in the Upper Peninsula of Michigan.	47.4166667	11.4666667	http://cabinporn.com/page/12
Lom, Norway	http://cabinporn.com/image/130953762606	http://36.media.tumblr.com/9e999bba603586053a2f6eb564ec307e/tumblr_mzmeg4Utl71qzwmsso1_1280.jpg	Stone cabin at the foot of Galdhøppigen in Lom, Norway.	61.83770740000001	8.5686505	http://cabinporn.com/page/13
Sierra Nevada National Park, 18450, Granada, Spain	http://cabinporn.com/image/130884825255	http://41.media.tumblr.com/tumblr_m3jcjksaF81qzwmsso1_1280.jpg	Refugio Vivac de la Caldera at the base of Mulhacen in Sierra Nevada National Park, Andalusia, Spain. 	37.0416164	-3.1378173	http://cabinporn.com/page/13
Manitoba, Canada	http://cabinporn.com/image/130818646876	http://40.media.tumblr.com/c35c8ab8b976ab4094536f0f3a215bbc/tumblr_nvd7od9NEH1qzwmsso1_1280.jpg	Cabin in The Narrows of Manitoba, Canada.	53.7608608	-98.81387629999999	http://cabinporn.com/page/13
Folgefonna National Park, 5470 Rosendal, Norway	http://cabinporn.com/image/130749802120	http://36.media.tumblr.com/7dd6fcc10d24665ae9aaff75089fb40b/tumblr_nvjdrmQqCm1qzwmsso1_1280.jpg	Cabin in Folgefonna National Park, Norway.	60.0148605	6.2979147	http://cabinporn.com/page/13
Museum of the Jews of Bosnia and Herzegovina, Velika avlija Laure Papo Bahorete, Sarajevo 71000, Bosnia and Herzegovina	http://cabinporn.com/image/130688318857	http://41.media.tumblr.com/27923347d7bdc48e4d78cf45ad3413f8/tumblr_nvrqyrM3SC1qzwmsso1_1280.jpg	Ski cabin on Jahorina Mountain near Sarajevo, Bosnia.	43.8597279	18.4278139	http://cabinporn.com/page/13
4860 Basto, Portugal	http://cabinporn.com/image/130685993475	http://36.media.tumblr.com/d70e76ad5484d3bebe4f2deac07b35c3/tumblr_mquppgQUR61qzwmsso1_1280.jpg	Cabin nestled between boulders in Cabeceiras de Basto, Braga, Portugal.	41.4881515	-7.982513399999999	http://cabinporn.com/page/13
Park County, CO, USA	http://cabinporn.com/image/130622227313	http://41.media.tumblr.com/d48e8ffee5f799272a1fa67a7aa76dd4/tumblr_nvchjeigLh1qzwmsso1_1280.jpg	Off-grid cabin in Park County, Colorado.  	39.0897928	-105.5943388	http://cabinporn.com/page/13
	http://www.cabinporn.com/book	http://41.media.tumblr.com/9d43ffef7e907d34ca48269f018b7386/tumblr_nvru4o6ROx1qzwmsso1_1280.jpg	The Cabin Porn Book is available all over the world. Please post a pic of your copy, at your quiet place somewhere, to Instagram or Tumblr and use the hashtag ‪#‎cabinporn‬.			http://cabinporn.com/page/13
British Columbia, Canada	http://cabinporn.com/image/130554617000	http://41.media.tumblr.com/f84030f09748c75434f47c8f93f91adc/tumblr_nvnu5fq5p61qzwmsso1_1280.jpg	Wedge Mountain Cabin in British Columbia, Canada.	53.7266683	-127.6476206	http://cabinporn.com/page/13
Geiranger, Norway	http://cabinporn.com/image/130480971036	http://36.media.tumblr.com/ec4ebdbc7349fccddd8e4ffc087a47e5/tumblr_mnvpb4QpC61qzwmsso1_1280.jpg	Stone huts in Geiranger, Norway.	62.1008441	7.205894099999999	http://cabinporn.com/page/14
Vatnajökull National Park, Sprengisandsleið, Iceland	http://cabinporn.com/image/130408284737	http://41.media.tumblr.com/116ed677eda96f5bdc7d25f436df8237/tumblr_nv13veVukM1qzwmsso1_1280.jpg	A-frame at Skælingar in the Vatnajökull National Park, Iceland.	64.6692295	-17.1799033	http://cabinporn.com/page/14
Bucks County, PA, USA	http://cabinporn.com/image/130340510193	http://41.media.tumblr.com/c36cac7a9f73b821811f6f1c9cba148e/tumblr_nvfvspvmWh1qzwmsso1_1280.jpg	Garden sheds in Bucks County, Pennsylvania.	40.4107964	-75.2479061	http://cabinporn.com/page/14
Jotunheimen, Lom, Norway	http://cabinporn.com/image/130274155277	http://40.media.tumblr.com/71a5b65cd54c4048140430d8b421a1d7/tumblr_nvfpl1zYOf1qzwmsso1_1280.jpg	Cabin in Jotunheimen, Norway.	61.6333333	8.299999999999999	http://cabinporn.com/page/14
Jotunheimen, Lom, Norway	http://www.cabinporn.com/book	http://36.media.tumblr.com/0bc0f8320bd4696a222d11f427c09be3/tumblr_nvgq3gR2NG1qzwmsso1_1280.jpg	Post ‘em if you got ‘em.	61.6333333	8.299999999999999	http://cabinporn.com/page/14
British Columbia, Canada	http://cabinporn.com/image/130137540217	http://40.media.tumblr.com/af0b0999797b833db00cf38811da2d83/tumblr_nt4xm39AIC1qzwmsso1_1280.jpg	Cabin in the Purcell Mountains of British Columbia, Canada. 	53.7266683	-127.6476206	http://cabinporn.com/page/14
British Columbia, Canada	http://cabinporn.com/image/130127205625	http://40.media.tumblr.com/b0d8a58bcb52289d9c61bc9b6622f4d9/tumblr_nlegmoxLCM1qzwmsso1_1280.jpg	Earthen house in North Iceland.	53.7266683	-127.6476206	http://cabinporn.com/page/14
British Columbia, Canada	http://cabinporn.com/image/130066511849	http://36.media.tumblr.com/ab2dbcb85760645c109b638667c53a23/tumblr_n2b6fwli6q1qzwmsso1_1280.jpg	Earthen cabin in Southern Iceland.	53.7266683	-127.6476206	http://cabinporn.com/page/15
British Columbia, Canada	http://cabinporn.com/greenwood	http://36.media.tumblr.com/c4812d46debd7140055046992c5f27a5/tumblr_nvdbb0rIdl1qzwmsso1_1280.png	Introducing Cabin Porn’s first film collaboration.	53.7266683	-127.6476206	http://cabinporn.com/page/15
Norway Ct NW, Bemidji, MN 56601, USA	http://cabinporn.com/image/129992810656	http://41.media.tumblr.com/e486fc60b6ee3e23c27ed00f56ca58a6/tumblr_ntwkvehbX51qzwmsso1_1280.jpg	Wooden hut on the island of Kvaløya, Northern Norway.	47.536058	-94.88293440000001	http://cabinporn.com/page/15
Tolhuin, Tierra del Fuego Province, Argentina	http://cabinporn.com/image/129920105257	http://41.media.tumblr.com/7d0445fad0be4c82b61f9e22dc9daa93/tumblr_nu2bx2thJB1qzwmsso1_1280.jpg	Cabin by the Fagnano Lake in Tolhuin, Tierra del Fuego, Argentina.	-54.50792690000001	-67.1923676	http://cabinporn.com/page/15
Tolhuin, Tierra del Fuego Province, Argentina	http://cabinporn.com/image/129851874200	http://40.media.tumblr.com/445970ba53d9eb606d985eb9561fc2e5/tumblr_nqffax94Zh1qzwmsso1_1280.png	Writes contributor Ben Curry:	-54.50792690000001	-67.1923676	http://cabinporn.com/page/15
Swindon, Swindon, Swindon, UK	http://cabinporn.com/image/129784255532	http://36.media.tumblr.com/435986f9d95179374ec4a9b90f025f43/tumblr_ntx1qg0cAE1qzwmsso1_1280.jpg	Hexagonal timber frame sauna with reciprocal roof in Swindon, England.	51.55577390000001	-1.7797176	http://cabinporn.com/page/15
Sullivan County, NY, USA	http://www.nytimes.com/2015/09/24/fashion/the-cabin-porn-commune.html	http://36.media.tumblr.com/02fd7ebc6593adbb3ab29302889f3ef3/tumblr_nv5miesTwC1qzwmsso1_1280.jpg	The ‘Cabin Porn Commune’ in Sullivan County, NY.	41.6897493	-74.7805192	http://cabinporn.com/page/15
	http://cabinporn.com/image/129715905101	http://40.media.tumblr.com/37d7d4276d2b18a79b6952bfba60855e/tumblr_nuzsun30kX1qzwmsso1_1280.jpg	Elizabeth Parker Hut, Yoho National Park, British Columbia. 			http://cabinporn.com/page/15
	http://cabinporn.com/image/129645076499	http://41.media.tumblr.com/95dc3e6ef7edbce48f0b9c181987e460/tumblr_nv1k6bOJ9j1qzwmsso1_1280.jpg	Bivouac in Kongsfjord at the Veines cliff in Varanger, Arctic Norway.			http://cabinporn.com/page/15
	http://cabinporn.com/image/129573906332	http://36.media.tumblr.com/0b6e008d0c386555e80a15070ca30424/tumblr_nuu73v4HLu1qzwmsso1_1280.jpg	Asymmetric cabin in North Iceland.			http://cabinporn.com/page/15
Golden Ears Provincial Park, 24480 Fern Crescent, Maple Ridge, BC V4R 2S1, Canada	http://cabinporn.com/image/129498160468	http://40.media.tumblr.com/d461be11ea9e9a583b85bfd4758dea79/tumblr_myikfiGpru1qzwmsso1_1280.jpg	Emergency shelter on the Golden Ears Trail in Golden Ears Provincial Park, British Columbia. 	49.2482683	-122.5480243	http://cabinporn.com/page/16
Lake Bled, 4260 Bled, Slovenia	http://cabinporn.com/image/129424333728	http://41.media.tumblr.com/d0de2223757420fbf4a35b792054efc8/tumblr_nus0kw95IO1qzwmsso1_1280.jpg	A-frame in Lake Bled, Slovenia.	46.363598	14.0938053	http://cabinporn.com/page/16
Kamnik-Savinja Alps, 4206 Zgornje Jezersko, Slovenia	http://cabinporn.com/image/129355128883	http://41.media.tumblr.com/6c88aea94c98a71b1e4a27fcf0013cde/tumblr_nu74fmtEqa1qzwmsso1_1280.jpg	Reconstructed bivouac in the Kamnik Alps, Slovenia. 	46.3655164	14.5633381	http://cabinporn.com/page/16
	http://cabinporn.com/image/129293067970	http://36.media.tumblr.com/e25911858d1adc88d09bd7b777fddcd9/tumblr_nuu1t5zaLU1qzwmsso1_1280.jpg	The Cabin Porn Book ships in 10 days.  Get your copy for $22.			http://cabinporn.com/page/16
Albion, CA, USA	http://cabinporn.com/image/129287305032	http://40.media.tumblr.com/92f0ffe54d837db74755a44f2928c8b8/tumblr_ntfxaiyAKZ1qzwmsso1_1280.jpg	Owl Tree cabin in Albion, California. 	39.2232406	-123.7680598	http://cabinporn.com/page/16
Nordland, Norway	http://cabinporn.com/image/129219730795	http://40.media.tumblr.com/6def565b9412d6a8cd1fe0bcd75e5507/tumblr_nspxqdOBqS1qzwmsso1_1280.jpg	Cabin in Nordland, Norway.	67.693058	12.7073935	http://cabinporn.com/page/16
Galloway, Newton Stewart, Dumfries and Galloway DG8, UK	http://cabinporn.com/image/129186364090	http://40.media.tumblr.com/27df624d3a043704d989971e85d6dcae/tumblr_naptb4e5oD1qzwmsso1_1280.jpg	Yurt in Dumfries and Galloway, Scotland. 	55.05	-4.5	http://cabinporn.com/page/16
Galloway, Newton Stewart, Dumfries and Galloway DG8, UK	http://cabinporn.com/image/129186229800	http://41.media.tumblr.com/d8147d6498715f1da58c41f478fd19dd/tumblr_no5b5wHyI31qzwmsso1_1280.jpg	Log cabin in Nova Scotia. 	55.05	-4.5	http://cabinporn.com/page/16
Altai Republic, Russia	http://cabinporn.com/image/129000757736	http://41.media.tumblr.com/6407dc51ccc0ddb0a444cee2cf10d963/tumblr_ntojxl8zA41qzwmsso1_1280.jpg	Log cabin in Altai Republic, Russia.	50.6181924	86.2199308	http://cabinporn.com/page/16
Galiano Island, British Columbia, Canada	http://cabinporn.com/image/128923428959	http://41.media.tumblr.com/5b0b43708e2bc06be573180ce7448b31/tumblr_ntnaxeq7m81qzwmsso1_1280.jpg	Fixer-upper on Galiano Island, British Columbia.	48.92364689999999	-123.441472	http://cabinporn.com/page/16
Velebit, 53211, Trnovac, Croatia	http://cabinporn.com/image/128851917951	http://36.media.tumblr.com/747642b561abeb88cd03dd155766f31c/tumblr_nu4fm16c461qzwmsso1_1280.jpg	Mountain hut in South Velebit, Croatia.	44.5308333	15.2291667	http://cabinporn.com/page/17
	http://cabinporn.com/image/128781916527	http://40.media.tumblr.com/052dd7ed528dcfb14df5b5a4edcd7e6e/tumblr_nj7qirhtwr1qzwmsso1_1280.jpg	Cabin compound at Telemark Camping & Inn, Fyresdal, Norway.			http://cabinporn.com/page/17
New Mexico, USA	https://www.flipkey.com/abiquiu-cabin-rentals/p538706/	http://41.media.tumblr.com/812f61614b88afb05c79138a853924a0/tumblr_njd5kijOco1qzwmsso1_1280.jpg	Remote wilderness casita in Chama Wilderness, Northern New Mexico.	34.5199402	-105.8700901	http://cabinporn.com/page/17
Brooksville, ME, USA	http://cabinporn.com/image/128410713185	http://41.media.tumblr.com/340b1f9d84cd5799ec7c238894718136/tumblr_njz7nuOXXf1qzwmsso1_1280.jpg	Firewood storage near Brooksville, Maine.  The lightweight gothic arch trusses shed snow well.	44.34699060000001	-68.6847872	http://cabinporn.com/page/17
44410 Mosqueruela, Teruel, Spain	http://cabinporn.com/image/128338952759	http://41.media.tumblr.com/6e0c5bb0230082d34cd001a606958aae/tumblr_n8034eG8TE1qzwmsso1_1280.jpg	Herder’s hut in Mosqueruela, Teruel, Spain.	40.36093839999999	-0.4484679	http://cabinporn.com/page/17
Esso, Kamchatskiy kray, Russia, 684350	http://cabinporn.com/image/128266923745	http://41.media.tumblr.com/c6d7595b213b94e70ef51f1b1508d30a/tumblr_nk4rajRycy1qzwmsso1_1280.jpg	Abandoned reindeer herder’s cabin on a plateau near Esso, Kamchatka, Russia.	55.921585	158.709579	http://cabinporn.com/page/17
Esso, Kamchatskiy kray, Russia, 684350	http://cabinporn.com/image/128192166932	http://36.media.tumblr.com/4eda410000acd2eb433165663d3b7182/tumblr_nkk56lC5Ft1qzwmsso1_1280.jpg	Bill Putham Lodge in the Selkirk Mountains of British Columbia. 	55.921585	158.709579	http://cabinporn.com/page/17
E Portugal Rd, Moores Prairie Township, IL, USA	http://cabinporn.com/image/128114859089	http://40.media.tumblr.com/d4a4b687597ea7d912bac0519665fa33/tumblr_n8puibuuT71qzwmsso1_1280.jpg	Shepherd’s hut on high pasture in Serra do Gerês, Northern Portugal.	38.1406449	-88.79680839999999	http://cabinporn.com/page/17
Ontario, Canada	http://cabinporn.com/image/128035521570	http://40.media.tumblr.com/tumblr_mbdjghqzXE1qzwmsso1_1280.jpg	Shoreline cabins on Lake Temagami in Ontario, Canada.	51.253775	-85.3232139	http://cabinporn.com/page/17
Hankø, Fredrikstad, Norway	http://cabinporn.com/image/127950359463	http://41.media.tumblr.com/4d6900806b926df6678107a9b91dbfa3/tumblr_noggoeVHQm1qzwmsso1_1280.jpg	Red seaside hut in Hanko, Norway.	59.2035256	10.7795217	http://cabinporn.com/page/17
Chemin du Poisson Blanc, Denholm, QC J0X, Canada	http://cabinporn.com/image/127870094496	http://36.media.tumblr.com/95c1850922dd7a70fbe2a985ac87a97a/tumblr_nkrvb4GOCE1qzwmsso1_1280.jpg	Prospector’s hut on Parc régional du Poisson Blanc, Québec, Canada.	45.8577253	-75.7675222	http://cabinporn.com/page/18
Snoqualmie Pass, Snoqualmie Pass, WA 98068, USA	https://www.flickr.com/photos/cheryl_hill/20634298429/	http://40.media.tumblr.com/afac4b9208c9808a2c818102b418cf69/tumblr_ntk2gtLIdL1qzwmsso1_1280.jpg	A summer cabin along Denny Creek near Snoqualmie Pass, Washington. 	47.41	-121.405833	http://cabinporn.com/page/18
Oslo, Norway	http://cabinporn.com/image/127794808332	http://41.media.tumblr.com/922629e96bae279dad018008870fc0df/tumblr_nslqf4zuvA1qzwmsso1_1280.jpg	Cabin open to the public one-hour outside Oslo, Norway.	59.9138688	10.7522454	http://cabinporn.com/page/18
Oslo, Norway	http://cabinporn.com/image/127719148418	http://41.media.tumblr.com/3d9a99522b7302064267cd05f08c8092/tumblr_ntaivfNPX71qzwmsso1_1280.jpg	Changing room hut at a hot springs in Iceland.	59.9138688	10.7522454	http://cabinporn.com/page/18
Death Valley, CA, USA	http://cabinporn.com/image/127642193600	http://40.media.tumblr.com/03727e8867681c9061471a6385ad20c6/tumblr_n28rrg48Li1qzwmsso1_1280.jpg	Geologist’s cabin in Death Valley, California.	36.5322649	-116.9325408	http://cabinporn.com/page/18
Finland	http://cabinporn.com/image/127563753765	http://41.media.tumblr.com/4f0d518215b257be012fd8f78337f4b6/tumblr_mp2715ku3o1qzwmsso1_1280.jpg	Smoke sauna in Lake Takajärvi, Finland.	61.92410999999999	25.748151	http://cabinporn.com/page/18
	http://cabinporn.com/image/127558788670	http://40.media.tumblr.com/4b31dff6a90574958b1cfcfdd13a87ef/tumblr_nkd1rhH2fV1qzwmsso1_1280.jpg	A-frame on the south side of Lake Tikchick, Bristol Bay, Alaska. This cabin was once used as a fishing guide location and still has bunks and non-perishables inside for anyone who happens to be passing through. 			http://cabinporn.com/page/18
	http://cabinporn.com/image/127484035100	http://36.media.tumblr.com/eb44e328599d153f853a4abb9e0c8fab/tumblr_nsgvh9KxkQ1qzwmsso1_1280.jpg	Art installation and emergency shelter in Crevoux, French Alps. 			http://cabinporn.com/page/18
Laruns, France	http://cabinporn.com/image/127399968182	http://41.media.tumblr.com/43b935eb96db76a4c746b271ead81b0a/tumblr_n8qhltAVc81qzwmsso1_1280.jpg	The Refuge of Arlet near Pic du Midi d’Ossau Pyrenees National Park in Laruns, France.	42.987644	-0.426274	http://cabinporn.com/page/18
Algonquin Provincial Park, Ontario 60, Nipissing, Unorganized, South Part, ON K0J 2M0, Canada	http://cabinporn.com/image/127243278409	http://41.media.tumblr.com/17f4b30b2b8acd59d939510dd12b568b/tumblr_nr4jy4I09k1qzwmsso1_1280.jpg	Crooked Chute Ranger Cabin on the Petawawa River in Algonquin Provincial Park, Ontario, Canada.	45.8371591	-78.3791239	http://cabinporn.com/page/18
Algonquin Provincial Park, Ontario 60, Nipissing, Unorganized, South Part, ON K0J 2M0, Canada	http://cabinporn.com/image/127163639035	http://40.media.tumblr.com/d2f75666b0cde24b9dabe627537a8335/tumblr_nsvbl2mnSi1qzwmsso1_1280.jpg	Fixer-upper in Western Maine. 	45.8371591	-78.3791239	http://cabinporn.com/page/19
Randolph, VT, USA	http://cabinporn.com/image/127083366241	http://40.media.tumblr.com/718734c551d421066240e9ea7d73eb37/tumblr_nlzizxnQZi1qzwmsso1_1280.jpg	Old corn crib converted into cabin with lofted bedroom near Randolph, Vermont.	43.9247446	-72.6656948	http://cabinporn.com/page/19
Kenai, AK, USA	http://cabinporn.com/image/127001334121	http://41.media.tumblr.com/70222749a1b4357b5efe7f6a82561d70/tumblr_nspsquY5a01qzwmsso1_1280.jpg	Cabin on the Kenai Peninsula, Alaska.	60.55444439999999	-151.2583333	http://cabinporn.com/page/19
Sweden	http://cabinporn.com/image/126918312165	http://40.media.tumblr.com/e1f46bc99c318359730bc0bcafedc918/tumblr_nt81joe7731qzwmsso1_1280.jpg	Earthen cabin in Småland, Sweden. 	60.12816100000001	18.643501	http://cabinporn.com/page/19
Devon, UK	http://cabinporn.com/image/126834049812	http://40.media.tumblr.com/b75ff0f6864cc1f14b0d4a30f9eeece2/tumblr_noi16ipJgr1qzwmsso1_1280.jpg	Big Sky Retreat in Devon, United Kingdom. 	50.7155591	-3.530875	http://cabinporn.com/page/19
Queenstown, New Zealand	http://cabinporn.com/image/126754340517	http://41.media.tumblr.com/d66e852cb45356cbb288116841f852f9/tumblr_moanq19pqG1qzwmsso1_1280.jpg	Abandoned miner’s cabin outside Queenstown, New Zealand. 	-45.0311622	168.6626435	http://cabinporn.com/page/19
Finland	http://cabinporn.com/image/126694307300	http://41.media.tumblr.com/6746ab751bcf67713ff1f311f4480740/tumblr_nt3bxtzIpj1qzwmsso1_1280.jpg	Cabin in the Helsinki archipelago, Finland.	61.92410999999999	25.748151	http://cabinporn.com/page/19
Republic of Karelia, Russia	http://cabinporn.com/image/126675598268	http://41.media.tumblr.com/d969b761a7ad06ea715966013aecd795/tumblr_nrqvqqA3Pj1qzwmsso1_1280.jpg	Log shack near Volozero Lake in the Republic of Karelia, Russia.	63.15587019999999	32.9905552	http://cabinporn.com/page/19
Noord, Aruba	http://cabinporn.com/image/126595349629	http://41.media.tumblr.com/a93666f66b776a87f81f71ae60e1118f/tumblr_mq4xu6u8lS1qzwmsso1_1280.jpg	Fixer-upper near Noord, Aruba.	12.5765648	-70.03245	http://cabinporn.com/page/19
	http://cabinporn.com/image/126513831605	http://40.media.tumblr.com/7af8cf1b295e3c34eb67e583f394c96d/tumblr_nrt03tJWfe1qzwmsso1_1280.jpg	Shack in Nizhegorod Oblast, Russia.			http://cabinporn.com/page/19
Snaefellsnes, Iceland	http://cabinporn.com/image/126431451882	http://40.media.tumblr.com/b7137985d81d64fbbc105974f63c4659/tumblr_mtm0h3DjfN1qzwmsso1_1280.jpg	Mountain shed on the Snaefellsnes Peninsula, Iceland.	64.8702778	-23.1136111	http://cabinporn.com/page/20
Lamoille County, VT, USA	http://cabinporn.com/image/126345973005	http://41.media.tumblr.com/tumblr_m3ksnxcVd41qzwmsso1_1280.jpg	Sugarhouse built with salvaged materials in Lamoille County, Vermont.	44.64334179999999	-72.6314026	http://cabinporn.com/page/20
Bohusleden, 433 76 Jonsered, Sweden	http://cabinporn.com/image/126260674284	http://41.media.tumblr.com/61c3f0b1ab94d21232eb4c56adcc95b4/tumblr_ney0i1j2Of1qzwmsso1_1280.jpg	Earthen roof shelter on Lake Gadevatten in Bohusleden, Sweden. 	57.77318690000001	12.1586453	http://cabinporn.com/page/20
Bohusleden, 433 76 Jonsered, Sweden	http://cabinporn.com/image/126181205577	http://36.media.tumblr.com/35a51de2580f1cf654bcaa752b51f00c/tumblr_ng0fjc2Zp71qzwmsso1_1280.jpg	A-frame in Austria.	57.77318690000001	12.1586453	http://cabinporn.com/page/20
Berlin, Germany	http://cabinporn.com/image/126101540765	http://40.media.tumblr.com/199e71a49919bc54f1e20029ddb08b91/tumblr_nrmv3cuGQU1qzwmsso1_1280.jpg	Reclaimed houseboat in Berlin, Germany.	52.52000659999999	13.404954	http://cabinporn.com/page/20
Berlin, Germany	http://cabinporn.com/book	http://40.media.tumblr.com/93332ff7d5c77b26552521da27969014/tumblr_nso99iDoyA1qzwmsso1_1280.jpg	Cabin Porn Book	52.52000659999999	13.404954	http://cabinporn.com/page/20
Linguaglossa CT, Italy	http://cabinporn.com/image/126018835297	http://40.media.tumblr.com/ad09d20d4057d50f8610bba8536e7db9/tumblr_nqphupPIQS1qzwmsso1_1280.jpg	A-frame near the ski town of Linguaglossa, Sicily.	37.8427705	15.1417683	http://cabinporn.com/page/20
11012 Cogne AO, Italy	http://cabinporn.com/image/125850690568	http://40.media.tumblr.com/9350a1d50e3c374517d035f603a2921e/tumblr_nsb8sweqHe1qzwmsso1_1280.jpg	Treehouse in Gran Paradiso National Park near Cogne, Aosta, Italy.	45.6076215	7.359093	http://cabinporn.com/page/20
Greenwood, BC V0H, Canada	http://cabinporn.com/image/125776308875	http://40.media.tumblr.com/825c80c3af37e0a6dac268e033977503/tumblr_ns07lh3V0t1qzwmsso1_1280.jpg	Barrel cabin at Jewel Creek Organic Farm near Greenwood, BC, Canada. 	49.08789549999999	-118.6780998	http://cabinporn.com/page/20
River Rd, Athens, NY 12015, USA	http://cabinporn.com/image/125680468807	http://40.media.tumblr.com/975f2c2b2d0afd4b1ad66cfc1eb8edee/tumblr_nmvn55WcCa1qzwmsso1_1280.jpg	Cabin in the Hudson River Valley, New York.	42.2830579	-73.79434169999999	http://cabinporn.com/page/20
Rocha, Uruguay	http://cabinporn.com/image/125601404362	http://41.media.tumblr.com/43998c7d0313998fe2277ec3a6ea077a/tumblr_nryja1o7mR1qzwmsso1_1280.jpg	Wooden shack in Rocha, Uruguay.	-33.9674948	-53.9106594	http://cabinporn.com/page/21
Bryher, United Kingdom	http://cabinporn.com/image/125522022377	http://36.media.tumblr.com/84fff70fc5bc6d7643136f61b0cdde5b/tumblr_mq940mOJxO1qzwmsso1_1280.jpg	Hut on Bryher Isles, Scilly.	49.9541408	-6.354108399999999	http://cabinporn.com/page/21
Whistler, BC V0N, Canada	http://cabinporn.com/image/125517140205	http://41.media.tumblr.com/0fea39b3829d2c163b19c285dd6e5512/tumblr_nkjzviDVt41qzwmsso1_1280.jpg	A-frame under construction in Whistler, British Columbia	50.1163196	-122.9573563	http://cabinporn.com/page/21
Whistler, BC V0N, Canada	http://cabinporn.com/image/125436809835	http://40.media.tumblr.com/82030f6f23fe0d34dcbdb0c1d333924c/tumblr_nrf7htpv6O1qzwmsso1_1280.jpg	Contributor Liz Henderson writes:	50.1163196	-122.9573563	http://cabinporn.com/page/21
Whistler, BC V0N, Canada	http://cabinporn.com/book	http://36.media.tumblr.com/3cae448eafe6cdd27c210b4da274cfe7/tumblr_ns9p18pY5a1qzwmsso1_1280.jpg	The Cabin Book book in the wild.	50.1163196	-122.9573563	http://cabinporn.com/page/21
San Pedro, Buenos Aires Province, Argentina	http://cabinporn.com/image/125351148361	http://41.media.tumblr.com/ac6e3e9b1cb2971bf6f866b3cb597ba2/tumblr_nkn6scgt8q1qzwmsso1_1280.jpg	Cabin at San Pedro, Buenos Aires, Argentina.	-33.6757835	-59.66286640000001	http://cabinporn.com/page/21
San Pedro, Buenos Aires Province, Argentina	http://cabinporn.com/image/125275274025	http://36.media.tumblr.com/0d72a38bc6dd906dfc3d5e08f4be157b/tumblr_nlawyuuSUH1qzwmsso1_1280.png	Log cabin in the White Mountains of New Hampshire. 	-33.6757835	-59.66286640000001	http://cabinporn.com/page/21
Newton, MA, USA	http://cabinporn.com/image/125264647183	http://41.media.tumblr.com/de7c977e6b003660a7a24fe45cd60cc0/tumblr_nrlngwd1pN1qzwmsso1_1280.jpg	Swamp Hut in Newton, Massachusetts.	42.3370413	-71.20922139999999	http://cabinporn.com/page/21
Lech, Austria	http://cabinporn.com/image/125177192008	http://41.media.tumblr.com/9b1d42d50c358d5f7f51bbc3c62941bb/tumblr_nnvgy899HG1qzwmsso1_1280.jpg	Cabin near Lech, Austria. 	47.2111926	10.1439399	http://cabinporn.com/page/21
Hill City, ID 83337, USA	http://cabinporn.com/image/125089015469	http://40.media.tumblr.com/cd8e6e78a97438e962709dd153784a88/tumblr_no3rwwYStT1qzwmsso1_1280.jpg	Homestead in Hill City, Idaho.	43.3004541	-115.0511807	http://cabinporn.com/page/21
	http://cabinporn.com/image/125008085946	http://41.media.tumblr.com/4cd15e347c2fd326b53471eb9b46b7b6/tumblr_noc4e6yhJS1qzwmsso1_1280.jpg	Fishing shack on the White Sea, Russia.			http://cabinporn.com/page/22
Cradle Mountain TAS 7306, Australia	http://cabinporn.com/image/124927083450	http://40.media.tumblr.com/cb5e8d1f064e8e8c2c4f825150eb7909/tumblr_nm9n0bKMQ01qzwmsso1_1280.jpg	Kitchen Hut on Cradle Mountain, Tasmania, Australia. 	-41.6851318	145.9526516	http://cabinporn.com/page/22
Independence, CA 93526, USA	http://cabinporn.com/image/124842573142	http://40.media.tumblr.com/7d36270d2f9e99f67ce49eb1057e8751/tumblr_npbs7ia14Q1qzwmsso1_1280.jpg	Abandoned mining cabin outside Independence, California.	36.8027102	-118.2000951	http://cabinporn.com/page/22
Hatcher Pass, Willow, AK 99654, USA	http://cabinporn.com/image/124756063585	http://36.media.tumblr.com/ef322525860b7f8188e6a23fca4b3e69/tumblr_nmdkwkKzVr1qzwmsso1_1280.jpg	Lane Hut on Hatcher Pass, Alaska.	61.7697222	-149.3088889	http://cabinporn.com/page/22
Hatcher Pass, Willow, AK 99654, USA	http://cabinporn.com/image/124669303720	http://40.media.tumblr.com/bd464f6fc91845aedab837bc25bc0a0c/tumblr_nqgu50m5hj1qzwmsso1_1280.jpg	Two cabins below a volcanic hill in Iceland.	61.7697222	-149.3088889	http://cabinporn.com/page/22
635 13 Biby, Sweden	http://cabinporn.com/image/124581417050	http://40.media.tumblr.com/85b4c1684409d77b6571eda21c8252ea/tumblr_nrgl6xCQPt1qzwmsso1_1280.jpg	Cabin in Biby, Sweden.	59.29779809999999	16.3638404	http://cabinporn.com/page/22
Cévennes, 19270 Sainte-Féréole, France	http://cabinporn.com/image/124498077225	http://41.media.tumblr.com/e4909fd320a59d3a76a77f380f2d83a2/tumblr_nmsj66qej71qzwmsso1_1280.jpg	Stone shepherd hut in Cevennes, France. 	45.242026	1.55471	http://cabinporn.com/page/22
Moscow, Russia	http://cabinporn.com/image/124490555423	http://40.media.tumblr.com/76f172e5b46bedcdd80fc63b59409117/tumblr_nmuje7W6AN1qzwmsso1_1280.jpg	Abandoned lumberjack shack outside Moscow, Russia.	55.755826	37.6173	http://cabinporn.com/page/22
Province of Bolzano - South Tyrol, Italy	http://cabinporn.com/image/124417166975	http://41.media.tumblr.com/4b78ec58fb4027d4ea10930d26e9f3e3/tumblr_nopf9f4fTF1qzwmsso1_1280.jpg	Lake house in South Tirol, Italy.	46.7340955	11.2888015	http://cabinporn.com/page/22
Lillooet, BC, Canada	http://cabinporn.com/image/124336700230	http://40.media.tumblr.com/9c606c96ed6642130618540477339553/tumblr_npy3kl8kcX1qzwmsso1_1280.jpg	Fixer-upper in South Chilcotin Moutnains Park near Lillooet, British Columbia.	50.6863017	-121.9367502	http://cabinporn.com/page/23
Cradle Mountain-Lake Saint Clair National Park, Cradle Mountain TAS 7306, Australia	http://cabinporn.com/image/124329463501	http://40.media.tumblr.com/65429ceb3da4d6133a97f7143bde18e0/tumblr_nqh6rfOJNa1qzwmsso1_1280.jpg	Old Pelion Hut in Cradle Mountain-Lake St. Clair National Park, Tasmnia.	-41.8333333	146	http://cabinporn.com/page/23
Franz Josef Glacier 7886, New Zealand	http://cabinporn.com/image/124252084154	http://40.media.tumblr.com/9dade2816d1994c98c11225bca525259/tumblr_nnvv7zxzQF1qzwmsso1_1280.jpg	Walkers cabin on Franz Joseph Glacier, New Zealand.	-43.3873293	170.1832884	http://cabinporn.com/page/23
Naches, WA 98937, USA	http://cabinporn.com/image/124244559107	http://41.media.tumblr.com/bdd4acf10687e4afdd67c2946ce7b6e7/tumblr_nqvwf8YAiL1qzwmsso1_1280.jpg	Agricultural outbuilding Naches, Washington.	46.730958	-120.699516	http://cabinporn.com/page/23
Mount Cook National Park, New Zealand	http://cabinporn.com/image/124243029765	http://36.media.tumblr.com/d18474e7d0bb0f8b1559f71e5324971e/tumblr_nnnv7c4ybP1qzwmsso1_1280.jpg	Cabins in Mount Cook National Park, New Zealand.	-43.7354768	170.1010192	http://cabinporn.com/page/23
38600 Lavia, Finland	http://cabinporn.com/image/124165675614	http://36.media.tumblr.com/14a1fae043f710c1aeb3e102fced913e/tumblr_nq9db9c5XJ1qzwmsso1_1280.jpg	Perched cabin in Lavia, Finland	61.5965873	22.5857231	http://cabinporn.com/page/23
Ghost Ranch St SW, Albuquerque, NM 87121, USA	http://cabinporn.com/image/124158099686	http://41.media.tumblr.com/4511742f7ddc9cdf6da1aaaef380245b/tumblr_nrbyd5t74u1qzwmsso1_1280.jpg	Log cabin near Ghost Ranch, New Mexico. 	35.0389947	-106.7458968	http://cabinporn.com/page/23
Three Lakes, WI 54562, USA	http://cabinporn.com/image/124079013908	http://40.media.tumblr.com/cf6b1204cac2d1903cbab7fe2629deeb/tumblr_nre4bmzSoF1qzwmsso1_1280.jpg	Stilted cabin in Three Lakes, Wisconsin.	45.79821949999999	-89.1626266	http://cabinporn.com/page/23
Chillicothe, OH 45601, USA	http://cabinporn.com/image/123647313985	http://41.media.tumblr.com/3cd304f74dcb86131f645826bf99e887/tumblr_nr6f5jjpxt1qzwmsso1_1280.jpg	Off-grid fishing cabin near Chillicothe, Ohio.	39.3331197	-82.9824019	http://cabinporn.com/page/24
	http://cabinporn.com/image/123038557170	http://40.media.tumblr.com/ef6792ae19537d99665a0bebc35b189c/tumblr_nqt5eeBGJI1qzwmsso1_1280.jpg	Hunting cabin in the Dinaric Alps, Bosnia and Herzegovina.			http://cabinporn.com/page/24
Samos, Greece	http://cabinporn.com/image/122853103449	http://41.media.tumblr.com/3055fdbd77926cd136f4ad5bfd9efe63/tumblr_mnu9t7lTo31qzwmsso1_1280.jpg	A small stone house used by vineyard workers on Samos Island, Greece. 	37.7547857	26.9777701	http://cabinporn.com/page/24
Town Commons Dr, Cary, NC 27519, USA	http://cabinporn.com/image/122441737225	http://41.media.tumblr.com/526b6a01fc40de9a6e7c69b37e718a04/tumblr_nq43er5hMD1qzwmsso1_1280.jpg	Hunting shelter in Panther Town Valley, North Carolina.	35.8494865	-78.89141289999999	http://cabinporn.com/page/24
Granada, Granada, Spain	http://cabinporn.com/image/122079793401	http://41.media.tumblr.com/aff1edf8fe6cee25ac17941037b4b74b/tumblr_nq8e3qsKQr1qzwmsso1_1280.jpg	Villa Ardilla in Granada, Spain.	37.1773363	-3.5985571	http://cabinporn.com/page/24
Yoyogi Park, 2-1 Yoyogikamizonochō, Shibuya-ku, Tōkyō-to 151-0052, Japan	http://cabinporn.com/image/121755135398	http://41.media.tumblr.com/140ac660fdc7362de0f49734b992ef05/tumblr_npv9l6IpBM1qzwmsso1_1280.jpg	Squat shelter in Yoyogi Park, Tokyo, Japan.	35.671736	139.6949447	http://cabinporn.com/page/24
Rocky Mountain National Park, Colorado 80517, USA	http://cabinporn.com/image/121589183882	http://40.media.tumblr.com/07464372069026746e22066c2283ece9/tumblr_npwxayq4zy1qzwmsso1_1280.jpg	Shelter at the Keyhole on Longs Peak in Rocky Mountain National Park, Colorado.	40.3427932	-105.6836389	http://cabinporn.com/page/24
San Carlos de Bariloche, Río Negro, Argentina	http://cabinporn.com/image/121439774645	http://40.media.tumblr.com/66fe8a31a9f6faf66e65fdbb14786454/tumblr_ne5ykfBVYj1qzwmsso1_1280.jpg	Cabin atop Cerro Catedral, Bariloche, Argentina.	-41.1334722	-71.3102778	http://cabinporn.com/page/24
San Carlos de Bariloche, Río Negro, Argentina	http://cabinporn.com/image/121021132001	http://41.media.tumblr.com/6ae8c29885aaf50fac30022bf0171751/tumblr_npd2ghOrZw1qzwmsso1_1280.jpg	Driftwood home built by the Afar people on the border of Ethiopia & Eritrea.	-41.1334722	-71.3102778	http://cabinporn.com/page/24
Eagle Lake, ON K0M, Canada	http://cabinporn.com/image/120693927155	http://41.media.tumblr.com/c38ab0cea1d5109bfcf56ad8dd1db065/tumblr_nmt9gsMCU21qzwmsso1_1280.jpg	Sauna on Basshaunt Lake near Eagle Lake, Ontario.	45.133333	-78.516667	http://cabinporn.com/page/24
Skamania County, WA, USA	http://cabinporn.com/image/120615358380	http://41.media.tumblr.com/eb4c16f462d1d28ea0b41fd68bcfb52c/tumblr_npbt2j2IYX1qzwmsso1_1280.jpg	The Cinder Cone in Skamania County, Washington.	45.9428524	-121.8962257	http://cabinporn.com/page/25
Iceland	http://cabinporn.com/image/120526796356	http://40.media.tumblr.com/5f39bddfc4bd2145ed00f0702ff09cb4/tumblr_nmoykwdGrp1qzwmsso1_1280.jpg	Repurposed ship in Vestur Skaftafellssýsla, Iceland.	64.963051	-19.020835	http://cabinporn.com/page/25
Mokohinau Islands, New Zealand	http://cabinporn.com/image/120454169320	http://41.media.tumblr.com/08bc0f5ccad7a3a07b8385e78af4ebda/tumblr_n2cago7beq1qzwmsso1_1280.jpg	Lighthouse keeper’s house, Mokohinau Islands, New Zealand.	-35.9056833	175.1139674	http://cabinporn.com/page/25
Canyon Vista, Shaver Lake, CA 93664, USA	http://cabinporn.com/image/120368285360	http://40.media.tumblr.com/9d4aa9857a8180ff422a7cc93e1f5cc4/tumblr_mxyr4eJMJX1qzwmsso1_1280.jpg	Abandoned cabin along the Fresno Canyon Trail, Big Bend Ranch State Park, Texas.	37.0641173	-119.294049	http://cabinporn.com/page/25
Kaprun, Austria	http://cabinporn.com/image/120116977600	http://41.media.tumblr.com/a96a54462fcd071387826b48f88b4c0e/tumblr_nnmja8kWoy1qzwmsso1_1280.jpg	Cabin in Kaprun, Austria.	47.2728876	12.759674	http://cabinporn.com/page/25
Canyon Meadow Dr, South Jordan, UT 84095, USA	http://cabinporn.com/image/120032191620	http://40.media.tumblr.com/e4384f30513b2b3f64a5cb106cdbcdd7/tumblr_nok7fcAd2D1qzwmsso1_1280.jpg	Potter’s workshop and cabin in Canyon Country, Utah.	40.5460104	-111.9691075	http://cabinporn.com/page/25
Brandenburg, Germany	http://cabinporn.com/image/119553791935	http://41.media.tumblr.com/387cd49388ccade300c215c7a7aa2119/tumblr_nonot820Dr1qzwmsso1_1280.jpg	Circus wagon cabin in Brandenburg, Germany.	52.4125287	12.5316444	http://cabinporn.com/page/25
Kaiserstuhl, 79346 Endingen am Kaiserstuhl, Germany	http://cabinporn.com/image/119363131000	http://40.media.tumblr.com/40d0dfb67298eb8ca41894a0106ad99c/tumblr_nokh86zUR01qzwmsso1_1280.jpg	Vineyard cabin in the Kaiserstuhl, a mountain range in Baden-Württemberg, Germany.	48.11	7.6641667	http://cabinporn.com/page/25
	http://cabinporn.com/image/119277642164	http://40.media.tumblr.com/e9ab70fe49fc141e52cde86d96cb5392/tumblr_nofrvgpY3f1qzwmsso1_1280.jpg	Earthen cabin in Thingvellir National Park, Iceland.			http://cabinporn.com/page/25
Parc Ela, 7450 Albula/Alvra, Switzerland	http://cabinporn.com/image/119067489755	http://41.media.tumblr.com/b48a2299b56867c614ccfb81c07c449b/tumblr_noe0yk9I5w1qzwmsso1_1280.jpg	Shepherd’s cabin near Parc Ela, Switzerland.	46.6320597	9.6425141	http://cabinporn.com/page/25
Pankow, Berlin, Germany	http://cabinporn.com/image/118866946400	http://36.media.tumblr.com/bbac457641cf24959352fd8f49ed7bf1/tumblr_noa82m1d6W1qzwmsso1_1280.jpg	Garden shed in Berlin-Pankow, Germany. 	52.5928787	13.4317001	http://cabinporn.com/page/26
10017 Montanaro TO, Italy	http://cabinporn.com/image/118704296165	http://41.media.tumblr.com/7eccef68e472b773dec5a838db441a7a/tumblr_no6j00Ed7k1qzwmsso1_1280.jpg	Stone cabin in Alpe Pianlino in Montesinaro, Italy. 	45.22937049999999	7.8569897	http://cabinporn.com/page/26
10017 Montanaro TO, Italy	http://cabinporn.com/image/118607655014	http://40.media.tumblr.com/237417df4164c7241832f165ac7f4308/tumblr_nnx3z1owp71qzwmsso1_1280.jpg	Heptagonal yurt with turf roof. Off-grid somewhere in Southwestern England. 	45.22937049999999	7.8569897	http://cabinporn.com/page/26
Vancouver Island, British Columbia, Canada	http://cabinporn.com/image/118603903445	http://36.media.tumblr.com/3ebc1bbcaa04e2d9ade7d978d434a658/tumblr_nnzubciNSZ1qzwmsso1_1280.jpg	An acorn shaped cabin in the backcountry of South Vancouver Island, Canada. The door’s unlocked with the only remaining barrier to entry being the exploratory spirit necessary to find it. (And, if you do, please abide by the very reasonable rules left inside by those who invested in its building and continue to invest in its upkeep.)	49.6506376	-125.4493906	http://cabinporn.com/page/26
Alberta, Canada	http://cabinporn.com/image/118363789137	http://41.media.tumblr.com/ad32ba769116c78a8d75ac85d4358b49/tumblr_nnc4i6yfjZ1qzwmsso1_1280.jpg	Log cabin in Alberta, Canada. 	53.9332706	-116.5765035	http://cabinporn.com/page/26
Dovrefjell, Dovre, Norway	http://cabinporn.com/image/118300846835	http://40.media.tumblr.com/3834c544e86842d8073f7988d8254333/tumblr_nnf0jrLloK1qzwmsso1_1280.jpg	Log cabin in Dovrefjell, Norway. 	62.09999999999999	9.4166667	http://cabinporn.com/page/26
Triglav, 5232 Soča, Slovenia	http://www.lisasmit.tumblr.com	http://41.media.tumblr.com/121b79517e81d6dd8510f9448d52a503/tumblr_nnfdrjKGGO1qzwmsso1_1280.jpg	Cabin in Triglav, Slovenia.	46.3791994	13.8339168	http://cabinporn.com/page/26
Mount Bromo, Podokoyo, Tosari, Pasuruan, East Java, Indonesia	http://cabinporn.com/image/118199946139	http://41.media.tumblr.com/02dbad409f4f6d0ae5e3416c6769cb07/tumblr_nnroasGrjb1qzwmsso1_1280.jpg	Handmade home near Mount Bromo, Indonesia.	-7.9424936	112.9530122	http://cabinporn.com/page/26
River Coupall, Highland, UK	http://cabinporn.com/image/118199474140	http://41.media.tumblr.com/fa431050c702e7fec0485c776c718ec7/tumblr_nnty0ad8yr1qzwmsso1_1280.jpg	Lagangarbh hut in Buachaille Etive Mor near the River Coupall, Scotland.	56.6553525	-4.8995107	http://cabinporn.com/page/26
River Coupall, Highland, UK	http://cabinporn.com/image/117943256205	http://40.media.tumblr.com/cff9e309d8ab288c99212052ae02ab65/tumblr_nnmri3UHh41qzwmsso1_1280.jpg	Saharan camp in Morocco.	56.6553525	-4.8995107	http://cabinporn.com/page/27
Hamar, Norway	http://cabinporn.com/image/117728668065	http://40.media.tumblr.com/56d23bf19423a291c37f077fd2aed30b/tumblr_nndrxalJ261qzwmsso1_1280.jpg	Cottage near Hamar, Norway. 	60.7945331	11.0679977	http://cabinporn.com/page/27
Joshua Tree, CA 92252, USA	http://cabinporn.com/image/117556815040	http://41.media.tumblr.com/79d4801175cdbc87bbd9d1e964b2f50e/tumblr_nng4qkuyqU1qzwmsso1_1280.jpg	Cabin near Joshua Tree, California.	34.134728	-116.3130661	http://cabinporn.com/page/27
Grafton, NH, USA	http://cabinporn.com/image/117431488205	http://41.media.tumblr.com/e6c5e1a47c9511575632d985bbce0371/tumblr_nnf67sYuoJ1qzwmsso1_1280.jpg	Handmade home in Grafton, New Hampshire.	43.561127	-71.947327	http://cabinporn.com/page/27
Nefyn, Gwynedd, UK	http://cabinporn.com/image/117345278195	http://40.media.tumblr.com/6485f6df2cfb547370b60a17f83f7781/tumblr_nara3nAmMQ1qzwmsso1_1280.jpg	Beach hut in Nefyn, North Wales.	52.9356549	-4.520111	http://cabinporn.com/page/27
Ardnamurchan, Acharacle, Highland PH36, UK	http://cabinporn.com/image/117265629055	http://40.media.tumblr.com/995da40da7f469a265837f453b1fa004/tumblr_nn9nzgMSiP1qzwmsso1_1280.jpg	Church at Sanna Bay in Ardnamurchan, Scotland. 	56.7166667	-6.000000000000001	http://cabinporn.com/page/27
Rocky Mountain National Park, Colorado 80517, USA	http://cabinporn.com/image/117063505745	http://41.media.tumblr.com/05f06e8989aee56ff2830c372afd16a9/tumblr_nn645eU5471qzwmsso1_1280.jpg	Miner’s cabin in the Rocky Mountains, Colorado. 	40.3427932	-105.6836389	http://cabinporn.com/page/27
	http://cabinporn.com/image/116997681980	http://40.media.tumblr.com/e7deb08c3b8a1345b68a8ab39849805a/tumblr_nn4r0kjyWa1qzwmsso1_1280.jpg	Off-grid home near Clil, Israel			http://cabinporn.com/page/27
Lofoten, Vågan, Norway	http://cabinporn.com/image/116955450095	http://41.media.tumblr.com/d0031d968fe2c0f7240321ae03afa558/tumblr_nn49x21mMZ1qzwmsso1_1280.jpg	Mountain Hut in the Lofoten Islands, Norway.	68.4711111	13.8636111	http://cabinporn.com/page/27
Glenalmond, Perth, Perth and Kinross PH1, UK	http://cabinporn.com/image/116819382370	http://40.media.tumblr.com/dd632b9e0834a33f24698cac7a59533f/tumblr_nn0v17kWTt1qzwmsso1_1280.jpg	Galvanized steel cabin in Glen Almond, Perthshire, Scotland.	56.435463	-3.700994999999999	http://cabinporn.com/page/27
	http://cabinporn.com/image/116754272140	http://41.media.tumblr.com/07e63b59967bf49fe8c5b8bcb9d64315/tumblr_nn07cnXFAi1qzwmsso1_1280.jpg	Copper miner’s cottage in Roaring Water Bay, West Cork, Ireland.			http://cabinporn.com/page/28
	http://cabinporn.com/image/116382588676	http://40.media.tumblr.com/62960c21b654d7a466f283f2932b4981/tumblr_nmgd6j1lvD1qzwmsso1_1280.jpg	Fixer Upper			http://cabinporn.com/page/28
Sweden	http://cabinporn.com/image/116296251779	http://40.media.tumblr.com/17b601e8f9e5e6b30ee29ce35fdd8d3e/tumblr_nmhja7gmJe1qzwmsso1_1280.jpg	Earthen cabin in a forest near Gävle, Sweden.	60.12816100000001	18.643501	http://cabinporn.com/page/28
Murudalen, 7160 Bjugn, Norway	http://cabinporn.com/image/116294330335	http://41.media.tumblr.com/6d132d6ef022ada66015082a3d947f2d/tumblr_nmhjljcntW1qzwmsso1_1280.jpg	Hunters’ hut Murudalen, Norway.	63.77471500000001	9.941701199999999	http://cabinporn.com/page/28
Runn, 791 95 Falun, Sweden	http://cabinporn.com/image/116202664183	http://40.media.tumblr.com/6dfb3e71fca9a7fdb29aa07e01dfae84/tumblr_nmhywtklSQ1qzwmsso1_1280.jpg	Log cabin in Lake Runn, Sweden.	60.55	15.6666667	http://cabinporn.com/page/28
	http://cabinporn.com/image/116146784965	http://41.media.tumblr.com/ef9c426ebb53379b0b26873af40f9858/tumblr_nmnqj57p0E1qzwmsso1_1280.jpg	Hut in Singi, Northern Sweden.			http://cabinporn.com/page/28
	http://www.cabinporn.com/book	http://40.media.tumblr.com/a3aac9d5e54900e2c713c4bbc29b4aef/tumblr_nmkd0nDEas1qzwmsso1_1280.jpg	The book is done. Hundreds of our own original photos, and hundreds more contributed by our community.It will be released Sep 29th. Wait list → http://www.cabinporn.com/book			http://cabinporn.com/page/28
Ikesjaure, 930 90 Arjeplog, Sweden	http://cabinporn.com/image/115855782490	http://36.media.tumblr.com/627230bee4942b4b511d38d3af6ec83c/tumblr_nmg6xilSxx1qzwmsso1_1280.jpg	Day use cabin in Ikesjaure, Sweden.	66.83333329999999	16.15	http://cabinporn.com/page/28
Ikesjaure, 930 90 Arjeplog, Sweden	http://cabinporn.com/image/115719354345	http://36.media.tumblr.com/05ee200acfb5f2e9f773073816932ddf/tumblr_nmebbttlIy1qzwmsso1_1280.jpg	Deserted homestead in Bolivia’s high Sajama desert.  Chilean volcanos Parinacota and Pomerape appear in the distance.	66.83333329999999	16.15	http://cabinporn.com/page/28
Telluride, CO, USA	http://cabinporn.com/image/115380824015	http://40.media.tumblr.com/dae12cd124c9314412e1e210fcce891e/tumblr_nln7uuwWn91qzwmsso1_1280.jpg	Cabin between Red Mountain Pass and Telluride, Colorado at 12,400ft. 	37.9374939	-107.8122852	http://cabinporn.com/page/28
Randolph, VT, USA	http://cabinporn.com/image/115323273300	http://41.media.tumblr.com/718734c551d421066240e9ea7d73eb37/tumblr_nlzizsIQuF1qzwmsso1_1280.jpg	Old corn crib converted into cabin near Randolph, Vermont.	43.9247446	-72.6656948	http://cabinporn.com/page/29
Freetown Christiania, 1440 København, Denmark	http://cabinporn.com/image/115123674040	http://40.media.tumblr.com/8bd32158407c985aa66a025b7e1712c0/tumblr_nltqxm9O9d1qzwmsso1_1280.jpg	Earthen-roofed cabin in Freetown Christiania, Copenhagen, Denmark. 	55.67604249999999	12.6081154	http://cabinporn.com/page/29
	http://cabinporn.com/image/114435206000	http://40.media.tumblr.com/1134620fda672e31eb88f9e7a818c826/tumblr_nlo4f8BB2V1qzwmsso1_1280.jpg	Fixer-upper along the coast of the White Sea, Russia.			http://cabinporn.com/page/29
	http://cabinporn.com/image/113357637410	http://40.media.tumblr.com/005c7cf60e02414b3bbc938e3475bb2b/tumblr_nkytw9ASss1qzwmsso1_1280.jpg	Shepherd’s home near Col d’Aspin, French Pyrenees.			http://cabinporn.com/page/29
Cochrane, Cochrane, XI Región, Chile	http://cabinporn.com/image/112521261945	http://40.media.tumblr.com/8b0f0ceefb45375672a8022b8fabbc79/tumblr_nkggjy533L1qzwmsso1_1280.jpg	Cabin near Cochrane, Chile.	-47.2535728	-72.57298229999999	http://cabinporn.com/page/29
Kamchatka Krai, Russia	http://cabinporn.com/image/112258383705	http://36.media.tumblr.com/d8cadeae95466d22700b60bfd39db9fe/tumblr_nk6seiNjN31qzwmsso1_1280.jpg	Cabin/bathhouse in the Bystrinsky Nature Park in Kamchatka, Russia.	61.43439809999999	166.7884131	http://cabinporn.com/page/29
Kamchatka Krai, Russia	http://cabinporn.com/image/111866112708	http://41.media.tumblr.com/642314866a040b574d4b61154f6e8250/tumblr_nk4q64tiJ51qzwmsso1_1280.jpg	Fisherman’s dining house in Kamchatka, Russia.	61.43439809999999	166.7884131	http://cabinporn.com/page/29
Belgrade, Serbia	http://cabinporn.com/image/111284187424	http://36.media.tumblr.com/96cd01bfb4b68371e771178b89a1ecf0/tumblr_njussdQo271qzwmsso1_1280.jpg	Pile-dwelling on the island Ada Međica in Belgrade, Serbia. 	44.786568	20.4489216	http://cabinporn.com/page/30
Osceola, WI, USA	http://cabinporn.com/image/111183831608	http://40.media.tumblr.com/b38cc24c56dc4132e81370fcd0844753/tumblr_njpkoviAoV1qzwmsso1_1280.jpg	Composting outhouse at Community Homestead in Osceola, Wisconsin.	45.3205199	-92.7049303	http://cabinporn.com/page/30
Pan de Azúcar, Coquimbo, Región de Coquimbo, Chile	http://cabinporn.com/image/110811718140	http://40.media.tumblr.com/4738f2221f1b7b5542bdb0498a447a46/tumblr_njd0znqV1K1qzwmsso1_1280.jpg	Shelter on the coast of Pan De Azucar, Chile. 	-29.984299	-71.2627036	http://cabinporn.com/page/30
Iceland	http://cabinporn.com/image/110728081200	http://41.media.tumblr.com/0fe15458fb9eabd5980e4a9f89d393b6/tumblr_njic6q0P3X1qzwmsso1_1280.jpg	A-frame in Snæfellsjökull, Iceland.	64.963051	-19.020835	http://cabinporn.com/page/30
Ward, CO, USA	http://cabinporn.com/image/110646415150	http://40.media.tumblr.com/cf362224cafdd95b00cd92be8b71b890/tumblr_niofin4r6P1qzwmsso1_1280.jpg	Artist-in-Residence cabin up Lefthand Canyon in Ward, CO. 	40.0722083	-105.5083316	http://cabinporn.com/page/30
Lake Tahoe, United States	http://cabinporn.com/image/110075405275	http://40.media.tumblr.com/0d541b81f2ae68cf5ec7c59b4dce5114/tumblr_msxw6xnLTw1qzwmsso1_1280.jpg	Cabin in Lake Tahoe, California.	39.0968493	-120.0323507	http://cabinporn.com/page/30
Saranac Lake, NY, USA	http://cabinporn.com/image/109995011265	http://36.media.tumblr.com/b8895f9b92648fd62f290fa0bb8b08d8/tumblr_nj7juumkST1qzwmsso1_1280.jpg	Family compound on Honeymoon Island near Saranac Lake, New York.	44.329496	-74.1312662	http://cabinporn.com/page/30
Saranac Lake, NY, USA	http://cabinporn.com/image/109601858490	http://41.media.tumblr.com/4c0df3c117df3f59c9ce0884efe3abef/tumblr_nj06khZ9aw1qzwmsso1_1280.jpg	Sierra Club’s San Antonio Ski Hut on Mount Baldy in Southern California. 	44.329496	-74.1312662	http://cabinporn.com/page/30
Colorado Springs, CO, USA	http://cabinporn.com/image/109208710149	http://41.media.tumblr.com/9fead5541f7fc5a9c3a5f0d8f649adfd/tumblr_niofzpfLPY1qzwmsso1_1280.jpg	Bee-nest shelter near Colorado Springs, Colorado.	38.8338816	-104.8213634	http://cabinporn.com/page/30
Saints John Rd, Keystone, CO 80435, USA	http://cabinporn.com/image/108918505530	http://40.media.tumblr.com/d5331e660bb08a605e7297d96ed618d2/tumblr_nikfhrygjf1qzwmsso1_1280.jpg	A-Frame at 10,760’ outside the ghost town of Saints John, Colorado. 	39.6094996	-105.964889	http://cabinporn.com/page/31
Joshua Tree, CA 92252, USA	http://cabinporn.com/image/108550915163	http://40.media.tumblr.com/9247f98fa1ab1c75a4020ef745e5b266/tumblr_mvrnqxQV8u1qzwmsso1_1280.jpg	Homestead fixer-upper in Joshua Tree, CA. 	34.134728	-116.3130661	http://cabinporn.com/page/31
Ireland	http://cabinporn.com/image/107990347852	http://41.media.tumblr.com/df59f2b1da0aa936b3fc24f933b8f06e/tumblr_nhwnl7soTH1qzwmsso1_1280.jpg	Stone shelter on Carrauntoohil, the highest peak in Ireland.	53.41291	-8.24389	http://cabinporn.com/page/31
Asheville, NC, USA	http://cabinporn.com/image/107986863405	http://40.media.tumblr.com/2c3c40d0a8865ca36b9b1c7f61ac3776/tumblr_nhpze9sj8v1qzwmsso1_1280.jpg	Cabin on Blue Ridge Parkway near Asheville, NC.	35.5950581	-82.5514869	http://cabinporn.com/page/31
Village de Labelle, QC J0T, Canada	http://cabinporn.com/image/107896794700	http://40.media.tumblr.com/9ef9cb6149a4d6d8c7e155a57be517ad/tumblr_nhxm5k4QyI1qzwmsso1_1280.jpg	Hand-hewn cabin amidst a hundred acres of Laurentians woods in Labelle, Quebec.	46.28009	-74.7335949	http://cabinporn.com/page/31
Dover Plains, NY, USA	http://cabinporn.com/image/107598809105	http://41.media.tumblr.com/b0f821ee720eb41ff06f560a995e5624/tumblr_nhu1cfcsCw1qzwmsso1_1280.jpg	Abandoned cabin in Dover Plains, New York 	41.74120509999999	-73.5765151	http://cabinporn.com/page/31
Skye, United Kingdom	http://cabinporn.com/image/107516777075	http://40.media.tumblr.com/d4dd89f6bae6cf1fa65e2baf6f61da77/tumblr_nhrpy0fsXT1qzwmsso1_1280.jpg	Bothy and composting toilet tower on the Isle of Skye, Scotland. 	57.5359261	-6.226272499999999	http://cabinporn.com/page/31
Vancouver, BC, Canada	http://cabinporn.com/image/107222463895	http://36.media.tumblr.com/5b32ced174425d2438acaae8ee5a4ef0/tumblr_nhkbyht07g1qzwmsso1_1280.jpg	Backcountry ski cabin on Hollyburn Mountain near Vancouver, BC.	49.2827291	-123.1207375	http://cabinporn.com/page/32
Via Orobie, Provincia di Sondrio, Italy	http://cabinporn.com/image/106909720401	http://41.media.tumblr.com/a5bc506f8ae39e7022a6edd4380a18cd/tumblr_nhbbzgGk5m1qzwmsso1_1280.jpg	Hut for the production of cheese in Val Brembana in Orobie, Italy.	46.1616293	9.886748899999999	http://cabinporn.com/page/32
Reykjavík, Iceland	http://cabinporn.com/image/106620033065	http://36.media.tumblr.com/b35dda0c17ce72c310443927a07c799c/tumblr_nhd92ux2aT1qzwmsso1_1280.jpg	Cabins on the coast near Reykjavik, Iceland.	64.12652059999999	-21.8174393	http://cabinporn.com/page/32
Tankwa Karoo National Park, R355, Calvinia, 8190, South Africa	http://cabinporn.com/image/106516443360	http://41.media.tumblr.com/34ed07dc0ebffa3e13760e93f749ac56/tumblr_nh6n9oGgUq1qzwmsso1_1280.jpg	Gabion stone outhouse in Namaqualand National Park, South Africa.	-32.3003346	19.9973244	http://cabinporn.com/page/32
	http://cabinporn.com/image/106349021470	http://40.media.tumblr.com/378c18bd267254446501a5ccc9718740/tumblr_nh4z1vI9j51qzwmsso1_1280.jpg	80-year-old cabin in the Northern Black Forest, Germany.			http://cabinporn.com/page/32
London, UK	http://cabinporn.com/image/105961297195	http://40.media.tumblr.com/40b80d355f2c74786a09eb0e60803e8a/tumblr_nh1gc8UwjQ1qzwmsso1_1280.jpg	A backyard shed for writing books & plotting expeditions outside London, UK.	51.5073509	-0.1277583	http://cabinporn.com/page/32
Nunavut, Canada	http://cabinporn.com/image/105541337735	http://41.media.tumblr.com/73026451233cac4a31565fd7d16b4f38/tumblr_ngnlelM9HS1qzwmsso1_1280.jpg	Hut on Baffin Island in Nunavut, Canada. 	70.2997711	-83.1075769	http://cabinporn.com/page/32
Kenora, ON P0V, Canada	http://cabinporn.com/image/105450885715	http://36.media.tumblr.com/80410ff7e0f9c0b3a2b685a450eceff2/tumblr_ngnps3106X1qzwmsso1_1280.jpg	Shack near Kenora, Ontario, Canada.	49.7670416	-94.4893924	http://cabinporn.com/page/32
Carla Dr, Morrow, GA 30260, USA	http://cabinporn.com/image/105286931785	http://40.media.tumblr.com/fb9d242261449b052d7dbaad3efdc361/tumblr_ngl6wp61Kc1qzwmsso1_1280.jpg	Hut on Carlita Bay, South Georgia. 	33.5815244	-84.3302697	http://cabinporn.com/page/33
High Tatras, Vysoké Tatry, Slovakia	http://cabinporn.com/image/105188014745	http://41.media.tumblr.com/2b5d6a1240b9e2e6bec2776716e496ae/tumblr_ngirlbxezg1qzwmsso1_1280.jpg	Stone shelter in Five Ponds Valley, High Tatras, Poland.	49.166512	20.1316748	http://cabinporn.com/page/33
Vancouver Island, British Columbia, Canada	http://cabinporn.com/image/105012311690	http://40.media.tumblr.com/c50fc483904dd4abf6e60a689b64590f/tumblr_ngghwrFKuw1qzwmsso1_1280.jpg	Handmade cabin built with recycled insulated freezer panels, on Vancouver island, British Columbia Canada.	49.6506376	-125.4493906	http://cabinporn.com/page/33
Santana Beach, Nicaragua	http://cabinporn.com/image/104763720910	http://41.media.tumblr.com/81d46ff4634e90f6314f73bfebd7d3bf/tumblr_ng49kugnnJ1qzwmsso1_1280.jpg	A salvaged barrel home at Playa Santana, Nicaragua.	11.4466433	-86.092776	http://cabinporn.com/page/33
Khuri, Rajasthan 341302, India	http://cabinporn.com/image/104469028435	http://40.media.tumblr.com/c4d47552c3e34898adbf15ede36db3f4/tumblr_ng55z0MnfF1qzwmsso1_1280.jpg	Shepherd’s hut in Thar Desert south of Khuhri, Rajasthan, India.	27.1291782	74.3874779	http://cabinporn.com/page/33
	http://cabinporn.com/image/104411022826	http://40.media.tumblr.com/12c99c4a101671df3575814705d94b59/tumblr_nfs9rwhmbP1qzwmsso1_1280.jpg	A-frame near Mýrum, East Iceland.			http://cabinporn.com/page/33
	http://cabinporn.com/image/104329841648	http://40.media.tumblr.com/dab342005407177c726f875e0d509e52/tumblr_nfyw4fpmSB1qzwmsso1_1280.jpg	From reader David Ratzlaff:			http://cabinporn.com/page/33
Cime di Val Loga, 23024 Madesimo, Province of Sondrio, Italy	http://cabinporn.com/image/104243571965	http://40.media.tumblr.com/9e5e68cef758f38928870be0fd9912fb/tumblr_nfv56dDdvF1qzwmsso1_1280.jpg	Stone hut in Valle Spluga, Italy.	46.474722	9.276111	http://cabinporn.com/page/33
Squamish, BC, Canada	http://cabinporn.com/image/103462894757	http://36.media.tumblr.com/fe2b28b0fbd85e92460f702770022b07/tumblr_nfi7loemXA1qzwmsso1_1280.jpg	Treehouse built from salvaged materials near Squamish, British Columbia.	49.7016339	-123.1558121	http://cabinporn.com/page/33
Ushuaia, Tierra del Fuego Province, Argentina	http://cabinporn.com/image/103300971020	http://40.media.tumblr.com/0ad823abe37e227d802dfcf16bf0e624/tumblr_nfay361K521qzwmsso1_1280.jpg	Ski cabin with red windows in Ushuaia, Argentina.	-54.8019121	-68.3029511	http://cabinporn.com/page/34
Québec, Canada	http://cabinporn.com/image/103059536195	http://41.media.tumblr.com/e61363c9e4cb25f25656118af6bb6a21/tumblr_nf9pltwC8J1qzwmsso1_1280.jpg	Ice fishing hut on the Saguenay River in Québec, Canada.	52.9399159	-73.5491361	http://cabinporn.com/page/34
Sautens, Austria	http://cabinporn.com/image/102461511390	http://41.media.tumblr.com/8ffe4e1502b274f457d90c2919396120/tumblr_newb45Dhg11qzwmsso1_1280.jpg	Chalet near Sautens, Austria.	47.208156	10.8619685	http://cabinporn.com/page/34
	http://cabinporn.com/image/102277072894	http://41.media.tumblr.com/e7a30fdcde159e4da1efa86f83b53c37/tumblr_neqjwgTyeR1qzwmsso1_1280.jpg	Dusty blue cabin in progress, located somewhere unknown to us.			http://cabinporn.com/page/34
624 34 Gotland, Sweden	http://featuringfeaturing.co.uk	http://40.media.tumblr.com/6d15f41b24127b48160ef48f49f1eb8a/tumblr_ndleneJbx71qzwmsso1_r1_1280.png	Waxed cotton A-frame on the island of Gotland, Sweden.	57.649684	18.714468	http://cabinporn.com/page/34
Mt Desert Island, Maine, USA	http://cabinporn.com/image/101931433018	http://41.media.tumblr.com/0e10bfb08116e3097bc78f403d3221bb/tumblr_nebp11sKUA1qzwmsso1_1280.jpg	Log cabin on Mount Desert Island, Maine.	44.3924341	-68.3021373	http://cabinporn.com/page/34
Julijske Alpe, 4265 Bohinjsko jezero, Slovenia	http://cabinporn.com/image/101678699168	http://40.media.tumblr.com/97604e99b7a233cb91f389211d46d003/tumblr_ned5moYz9T1qzwmsso1_1280.jpg	Cabin at 6,798 feet in the Julian Alps, Slovenia. 	46.337745	13.750531	http://cabinporn.com/page/34
Lyme, CT, USA	http://cabinporn.com/image/101426550155	http://41.media.tumblr.com/84cff35e2e67f6821e6a4cc2f935ac1e/tumblr_mvqx3vlwAj1qzwmsso1_1280.jpg	12x16-foot cabin built in the 1970s in Lyme, Connecticut. 	41.40081199999999	-72.3429525	http://cabinporn.com/page/34
Tongass National Forest, 648 Mission Street, Ketchikan, AK 99901, USA	http://cabinporn.com/image/101008086180	http://40.media.tumblr.com/e41b543d33ceb689d1be6e5dbaa2657a/tumblr_ndtlsrIChr1qzwmsso1_1280.jpg	Green cabin in Tongass National Forest, Alaska.	56.75	-133	http://cabinporn.com/page/34
Beaver Brook Rd, Clemmons, NC 27012, USA	http://cabinporn.com/image/100594981625	http://41.media.tumblr.com/f5920ea419dee3ad551e4eda718e7e0d/tumblr_ndrph90RQA1qd8hvko1_1280.jpg	Sauna built by the Beaver Brook School, clad with pine boards, coated with pine tar, roofed with steel.	36.0257095	-80.3904093	http://cabinporn.com/page/35
Sighișoara, Romania	http://cabinporn.com/image/100088313160	http://40.media.tumblr.com/c06e959d7e8230815bfac45745b6d902/tumblr_ndhxqkRqe01qzwmsso1_1280.jpg	Shepard’s lodge in the Breite Oak Tree Reserve near Sighisoara, Transylvania, Romania.	46.2197025	24.7963878	http://cabinporn.com/page/35
Isle of Eigg, Isle of Eigg, Highland PH42, UK	http://cabinporn.com/image/99657062915	http://40.media.tumblr.com/805efff06b743fb75982b7dc667628cc/tumblr_ncoif251ze1qzwmsso1_1280.jpg	Art residency space on the Isle of Eigg, Scotland.	56.899527	-6.141611999999999	http://cabinporn.com/page/35
Zakarpats'ka oblast, Ukraine	http://cabinporn.com/image/99573672660	http://41.media.tumblr.com/f5ec8ff3da6b403f462a79348c13043a/tumblr_nd50u5wLjn1qzwmsso1_1280.jpg	Abandoned cabin near the village of Zhornava, Transcarpathia, Ukraine.	48.6208	22.287883	http://cabinporn.com/page/35
Zakarpats'ka oblast, Ukraine	http://www.amazon.com/gp/product/B00167XWJM?ie=UTF8&camp=213733&creative=393185&creativeASIN=B00167XWJM&linkCode=shr&tag=zackle-20&linkId=75CM672JM564RQSD	http://40.media.tumblr.com/904c547e84a25a11c5c1e1de02b1c8e7/tumblr_nd41xcZsrT1rhxqjno1_1280.jpg	cabinsupplies:	48.6208	22.287883	http://cabinporn.com/page/35
Cederberg Wilderness Area, West Coast DC, South Africa	http://cabinporn.com/image/99488025540	http://40.media.tumblr.com/b054d13e6adf337093b3dbdc55a9a370/tumblr_ncn3oyCNDG1qzwmsso1_1280.jpg	Cabin with a butterfly roof in the Cederberg Mountains, South Africa.	-32.332726	19.116657	http://cabinporn.com/page/35
Ahmic Lake, Ontario, Canada	http://cabinporn.com/image/99405109675	http://36.media.tumblr.com/f6f6873f53c2f5e8ed817d1dbc47b844/tumblr_ncq6ffYnXw1qzwmsso1_1280.jpg	Cabin on Ahmic Lake, Ontario.	45.6475895	-79.7175743	http://cabinporn.com/page/35
Aspen, CO 81611, USA	http://cabinporn.com/image/99154006730	http://36.media.tumblr.com/7275488ad3983ec6bd8ea43c315fcdc7/tumblr_ncxn6jRsFz1qzwmsso1_1280.jpg	The Tagert 10th Mountain Ski Hut under the first snow of Fall, near Aspen, CO.	39.1910983	-106.8175387	http://cabinporn.com/page/35
Shenandoah National Park, Stonewall, VA 22827, USA	http://cabinporn.com/image/98974736217	http://40.media.tumblr.com/4c03aa3bb799abb4c5e06c9c01029f2f/tumblr_mhz4baOIp51qzwmsso1_1280.jpg	Pocosin Cabin near the Appalachian Trail, Shenandoah National Park, Virginia.	38.29275579999999	-78.6795836	http://cabinporn.com/page/36
Folkestad, Norway	http://cabinporn.com/image/98891448288	http://40.media.tumblr.com/6c291af05ef65324d0e1c25e1dc0d799/tumblr_n2nbt40Ao31qzwmsso1_1280.jpg	Cabin with an earthen roof near Folkestad, Norway.	62.12009769999999	6.027514099999999	http://cabinporn.com/page/36
Big Sur, CA 93920, USA	http://cabinporn.com/image/98808991966	http://36.media.tumblr.com/f3686646f276f4b3632e716c53b7ff7b/tumblr_nca51uj02F1qzwmsso1_1280.jpg	Cabin in Big Sur, California.	36.2704212	-121.807976	http://cabinporn.com/page/36
Crested Butte, CO 81224, USA	http://cabinporn.com/image/98748829825	http://40.media.tumblr.com/d1b03803a9aca0d5b86e9e9215418318/tumblr_ncok4mNP6J1qzwmsso1_1280.jpg	Lean-to in the hills above Crested Butte, CO. 	38.8697146	-106.9878231	http://cabinporn.com/page/36
Velebit, 53211, Trnovac, Croatia	http://cabinporn.com/image/98739984090	http://36.media.tumblr.com/d33db5eca08d05ff21c7d88116e0de46/tumblr_ncnm6tAjmm1qzwmsso1_1280.jpg	Shelter in Veliko Rujno Valley, Velebit, Croatia.	44.5308333	15.2291667	http://cabinporn.com/page/36
Abiskojaure, 981 07 Abisko, Sweden	http://cabinporn.com/image/98726913530	http://40.media.tumblr.com/a77858a204585f61084746d7eda69e0c/tumblr_ncj1caONf01qzwmsso1_1280.jpg	Shelter near Abiskojaure, Sweden.	68.287892	18.5857468	http://cabinporn.com/page/36
Texas, USA	http://cabinporn.com/image/98475268600	http://40.media.tumblr.com/e5a4e56c13e96a3d78af05806aa8e080/tumblr_nchghigViw1qzwmsso1_1280.jpg	Fixer-upper in East Texas.	31.9685988	-99.9018131	http://cabinporn.com/page/36
Poso Stay here, Nairobi, Kenya	http://www.candlewoodcabins.com/site/glass_house	http://36.media.tumblr.com/17ca316b225371de6099c40757c6baa2/tumblr_ncetkuzeVd1qzwmsso1_r1_1280.jpg	STAY HERE	-1.2690419	36.8215578	http://cabinporn.com/page/36
Canyonville, OR, USA	http://cabinporn.com/image/98310048605	http://36.media.tumblr.com/14d7778fd4c8adcfd6cbb33bc714c282/tumblr_naz21lqKV41qzwmsso1_1280.jpg	Cabin built to resemble a fire lookout near Canyonville, Oregon. 	42.9273406	-123.2811748	http://cabinporn.com/page/36
Pescadero, CA, USA	http://cabinporn.com/image/98306965525	http://41.media.tumblr.com/2cbc5363f89f2b1932b12e8fbc075a68/tumblr_ncdo5vBSBR1qzwmsso1_1280.jpg	Tent bungalow in Pescadero, CA.	37.2551636	-122.3830152	http://cabinporn.com/page/36
Darjeeling, West Bengal 734101, India	http://cabinporn.com/image/98229410771	http://40.media.tumblr.com/d66880f7a618cd4d37c51eee58443da5/tumblr_nc05uxJfAb1qzwmsso1_1280.jpg	Hut made from salvaged materials in Darjeeling, India. 	27.0360066	88.2626751	http://cabinporn.com/page/37
Oulu, Finland	http://cabinporn.com/image/98147358362	http://36.media.tumblr.com/43791b8c887f33b19c606742d24a2405/tumblr_nc0dry2mli1qzwmsso1_1280.jpg	Kesän Sauna is a public sauna on Tuira Beach in Oulu, Finland. 	65.0120888	25.4650773	http://cabinporn.com/page/37
South Island	http://cabinporn.com/image/97890615340	http://36.media.tumblr.com/703fd065b2d13daf6ba1d3171afbd4f7/tumblr_mqb2v5N9Hc1qzwmsso1_1280.jpg	Sam Summer’s stone cabin on South Island, New Zealand.	-45.15267069999999	169.8926333	http://cabinporn.com/page/37
South, Iceland	http://cabinporn.com/image/97840935115	http://41.media.tumblr.com/e39ff2d3a65645edeab720efd4cdd26e/tumblr_nc3wdgDYQ81qzwmsso1_1280.jpg	Cabin near Arthur’s Pass, South Island, New Zealand.	64.2661426	-18.8158138	http://cabinporn.com/page/37
Valdres, Nord-Aurdal, Norway	http://cabinporn.com/image/97812417310	http://41.media.tumblr.com/0176b592ed5a2eb7f2664cc9f8730523/tumblr_naxs5oQ26E1qzwmsso1_1280.jpg	Cabin in Valdres, Norway.Contributed by Sturla Opsahl. 	60.9166667	9.1666667	http://cabinporn.com/page/37
Lychen, Germany	http://cabinporn.com/image/97733853839	http://41.media.tumblr.com/617d0829069186822009da8441a4508f/tumblr_nb6hxzYJuh1qzwmsso1_1280.jpg	Rustic river shack in Lychen, Germany.	53.21087	13.31541	http://cabinporn.com/page/37
Mont Lozère, 48220 Le Pont-de-Montvert, France	http://cabinporn.com/image/97472249630	http://41.media.tumblr.com/4602110a5c11f2030ed6fb699392fe5c/tumblr_nbm4ljji2j1qzwmsso1_1280.jpg	Cabin under (re)construction on the path of Stevenson (GR70), Mont-Lozère, France.	44.425963	3.739343	http://cabinporn.com/page/37
Luleå, Sweden	http://cabinporn.com/image/97303975963	http://36.media.tumblr.com/0baeec1dbb4116734afb6792a53a2221/tumblr_nbkzxeFEYK1qzwmsso1_1280.jpg	Cabin on the archipelago near Luleå, Sweden.	65.584819	22.1567026	http://cabinporn.com/page/38
19650 Tampinmylly, Finland	http://cabinporn.com/image/97222194775	http://40.media.tumblr.com/f40bcf48b0d5bc5fe2ed9a95bb65752f/tumblr_nbf3vh2BVu1qzwmsso1_1280.jpg	Summer cottage in Tampinmylly, Finland.	61.79949229999999	26.174664	http://cabinporn.com/page/38
Antalya, Antalya, Turkey	http://cabinporn.com/image/97141157742	http://41.media.tumblr.com/adf96865860c0619da79204cfc8818cc/tumblr_nblapyiGNv1qzwmsso1_1280.jpg	Shack in Olympos, near Antalya, Turkey.	36.8968908	30.7133233	http://cabinporn.com/page/38
Atlin, BC V0W, Canada	http://cabinporn.com/image/96455935207	http://40.media.tumblr.com/8d8a7251adfe91452125085e4f865ca7/tumblr_naov2uzZDF1qzwmsso1_1280.jpg	Trapper cabin in Atlin, British Columbia.	59.578028	-133.689524	http://cabinporn.com/page/38
Innsbruck, Austria	http://carmesine.tumblr.com	http://40.media.tumblr.com/cc00806515a0962cd505e9bd8c677191/tumblr_navflwcOHi1qzwmsso1_1280.jpg	Stone and wood shack near Kemacher Peak in Innsbruck, Austria.	47.2692124	11.4041024	http://cabinporn.com/page/38
Dydiowa, Poland	http://cabinporn.com/image/96003186344	http://40.media.tumblr.com/5f3247b61dd474ca472d5996a5970d41/tumblr_nanwluXIFM1qzwmsso1_1280.jpg	A-frame in Dydiówka, Poland.	49.1796264	22.745737	http://cabinporn.com/page/38
Berner Oberland Bahn, Switzerland	http://atmoslab.ch	http://40.media.tumblr.com/b96ed2c3438e25ccb9071dc7508b7217/tumblr_n83g1cKAaU1qzwmsso1_1280.jpg	Stone cabin in Berner Oberland, Bern, Switzerland.	46.6777311	7.872762600000001	http://cabinporn.com/page/38
	http://cabinporn.com/image/95827249969	http://36.media.tumblr.com/f704a8da90f3ec53e48601f0f30be32f/tumblr_naq1lmhyhQ1qzwmsso1_1280.jpg	Hunting cabin in Gutin Mountains, Romania.			http://cabinporn.com/page/39
Valais, Switzerland	http://cabinporn.com/image/95737451669	http://40.media.tumblr.com/f7e1cc5308f24d53548fb2bfa3192a74/tumblr_naf7w5mzSQ1qzwmsso1_1280.jpg	Refuge de Bouquetins in Valais, Switzerland.	46.1904614	7.5449226	http://cabinporn.com/page/39
Isfjorden, Norway	http://cabinporn.com/image/95463370000	http://40.media.tumblr.com/e5f15050801a1db94a952742b9429f8a/tumblr_na6qphr25r1qzwmsso1_1280.jpg	Cabin 800 miles from the North Pole on Isfjorden, Svalbard, Norway.	62.5777771	7.7922477	http://cabinporn.com/page/39
Holy Island, Berwick-upon-Tweed, Northumberland TD15, UK	http://cabinporn.com/image/95374523655	http://41.media.tumblr.com/5abb8bd2ba20db5b87b4da6faa4a340b/tumblr_na8krqJ0971qzwmsso1_1280.jpg	Refuge shelter on Holy Island, Northumbria, UK.	55.671239	-1.802039	http://cabinporn.com/page/39
	http://cabinporn.com/image/95283622940	http://40.media.tumblr.com/7b1095b960b9b3bb486ce6f1e1298c91/tumblr_na94n7ubij1qzwmsso1_1280.jpg				http://cabinporn.com/page/39
Dartmoor National Park, Yelverton, Devon PL20, UK	http://cabinporn.com/image/95193743116	http://40.media.tumblr.com/ab63669a0f2a68daa9c9ec27cb1bbc4c/tumblr_na9huzhYnW1qzwmsso1_1280.jpg	Hand-built tent in Dartmoor National Park, Devon UK.	50.5718857	-3.9206884	http://cabinporn.com/page/39
Westland St, Green Island, Dunedin 9018, New Zealand	http://cabinporn.com/image/95100486799	http://41.media.tumblr.com/ba5398ebf3a63144bc79fca7e839f9c6/tumblr_nadw4ajyj81qzwmsso1_1280.jpg	Mt. Brown Hut in Westland, New Zealand.	-45.90207059999999	170.4254739	http://cabinporn.com/page/39
Poljšica pri Podnartu, Slovenia	http://cabinporn.com/image/94864325765	http://40.media.tumblr.com/4d5e0090ca48fc96a95e5a57973dc776/tumblr_nacic0ZMly1qzwmsso1_1280.jpg	A-frame and family camp in Poljšica, Slovenia.	46.27795080000001	14.2601683	http://cabinporn.com/page/39
Finse, Norway	http://www.sindrer.tumblr.com	http://40.media.tumblr.com/e75a3e6911235a09bd02dfefd3ed0340/tumblr_n9ydtnzVW71qzwmsso1_1280.jpg	A cabin near Finse, Norway.	60.60507399999999	7.504649	http://cabinporn.com/page/39
Sandhornøya, Gildeskål, Norway	http://cabinporn.com/image/94727504130	http://40.media.tumblr.com/199e308adc659f5c134445cd7d42fbcc/tumblr_n8tor0aQMb1qzwmsso1_1280.jpg	Shelter in Sandhornoy, Norway. Created by students for the SALT-festival. 	67.0741701	14.1463921	http://cabinporn.com/page/39
Yulan, NY 12719, USA	http://cabinporn.com/image/94678942135	http://41.media.tumblr.com/1e0e5e5db513519f2e0f4e22005b3d2a/tumblr_na9uv9v3Zf1qd8hvko1_1280.jpg	The Beaver Brook Njalla in Yulan, NY.	41.5225898	-74.9329444	http://cabinporn.com/page/40
Tyrol, Austria	http://cabinporn.com/image/94633552455	http://41.media.tumblr.com/b589dfad350be4cdbc7c880a18165a62/tumblr_n9ut6y5Qvw1qzwmsso1_1280.jpg	A hut above Sölden in the Ötztal Valley in Tyrol, Austria.	47.2537414	11.601487	http://cabinporn.com/page/40
Unity, ME, USA	http://cabinporn.com/image/94567105415	http://40.media.tumblr.com/a2ffeff412c0055ce42702ac49636a8c/tumblr_na2al65WTZ1qzwmsso1_1280.jpg	Outhouse at The Buckle Farm in Unity, Maine.Photograph by Hannah Hamilton	44.6111643	-69.3345032	http://cabinporn.com/page/40
	http://cabinporn.com/image/94557476225	http://41.media.tumblr.com/ba37974be10dddbbbd218f468e8e547a/tumblr_na7kwdHc9d1qzwmsso1_1280.jpg	Cabin on Luchon peak, French Pyrenees.			http://cabinporn.com/page/40
Anchorage, AK, USA	http://cabinporn.com/image/94537169940	http://40.media.tumblr.com/2ffac3f38dd7f0bc8222ae227cda16dd/tumblr_n9w7jzoLHs1qzwmsso1_1280.jpg	A family-built hideout outside Anchorage, Alaska. 	61.2180556	-149.9002778	http://cabinporn.com/page/40
Ceske Budejovice, Czech Republic	http://cabinporn.com/image/94161751194	http://36.media.tumblr.com/123e6f575fb6c93f92a4c58c427b6fd3/tumblr_moors9Ias51qzwmsso1_1280.jpg	Getaway outside České Budějovice, Czech Republic.	48.9756578	14.480255	http://cabinporn.com/page/40
Posey, CA 93260, USA	http://cabinporn.com/image/94069281645	http://40.media.tumblr.com/84b808da7b36aeb8fae2c189e892a448/tumblr_myhzzv5IHQ1qzwmsso1_1280.jpg	A-frame in Poso Park, Sequoia National Forest in Posey, California.	35.8046737	-118.6828662	http://cabinporn.com/page/40
Eskişehir, Eskişehir Province, Turkey	http://cabinporn.com/image/93877892951	http://41.media.tumblr.com/a0c5c75b6b35425f4b388e0db7f9ab89/tumblr_ms8d53h9iW1qzwmsso1_1280.jpg	Treehouse in the mountains near Eskişehir, Turkey.	39.7667061	30.52563109999999	http://cabinporn.com/page/41
Hautes-Pyrénées, France	http://cabinporn.com/image/93777513990	http://40.media.tumblr.com/fa0dcb7009336dfb820d245e1c18ec7a/tumblr_mvsoqnfqfY1qzwmsso1_1280.jpg	Earthen shelter near Lake Oule in Neouvielle National Nature Reserve, Hautes-Pyrénées, France.	43.0193924	0.1494988	http://cabinporn.com/page/41
Seward, AK 99664, USA	http://cabinporn.com/image/93502069692	http://41.media.tumblr.com/72c3f9bd369ba7df322401009953bba2/tumblr_n9lfdkEMun1qzwmsso1_1280.jpg	Riverside a-frame in Seward, Alaska.	60.10416669999999	-149.4422222	http://cabinporn.com/page/41
Iceland	http://cabinporn.com/image/93311644979	http://41.media.tumblr.com/e297668e9cfb955461cc91658b8df8ca/tumblr_n7vnc5L1fo1qzwmsso1_1280.jpg	Alftavatn hut along the Laugavegurinn trail (aka “Hot Spring Route”) in Iceland.	64.963051	-19.020835	http://cabinporn.com/page/41
Serpukhov, Moscow Oblast, Russia	http://cabinporn.com/image/93214077008	http://41.media.tumblr.com/4991e4095a4371525d7a247a32beae18/tumblr_mxpi3i8aFn1qzwmsso1_1280.jpg	Geodesic dome in the woods near Serpuhov, Russia.	54.9179562	37.4229963	http://cabinporn.com/page/41
Plounéour-Ménez, France	http://cabinporn.com/image/93133184070	http://41.media.tumblr.com/6dbc3b0a225ff8cc545e8d85195e7abf/tumblr_n9fiklALuY1qzwmsso1_1280.jpg	Geodesic dome near Plounéour-Ménez, Brittany, France.	48.439388	-3.891231	http://cabinporn.com/page/41
Guysborough County, NS, Canada	http://cabinporn.com/image/92841903275	http://40.media.tumblr.com/8da6c44d180e407e560fd7bb85189e0d/tumblr_n99t8982sa1qzwmsso1_1280.jpg	Greenhouse in Guysborough County, Nova Scotia, Canada.	45.27440379999999	-61.8262436	http://cabinporn.com/page/41
Caucasus	http://cabinporn.com/image/92833045944	http://40.media.tumblr.com/1fba0d3e0910518b55cbdf2a19739e85/tumblr_mozzjut8VZ1qzwmsso1_1280.jpg	Glaciologist’s cabin in the Adyl Suu Valley, Northern Caucasus, Russia.	43.5851814	45	http://cabinporn.com/page/41
Brekkestø, Norway	http://cabinporn.com/image/92637708211	http://41.media.tumblr.com/9087ca8b58067a5c583c7c1afb5094d3/tumblr_n8jlmxopzl1qzwmsso1_1280.jpg	Summer cabin in Brekkestø, Norway.	58.1955985	8.3490992	http://cabinporn.com/page/41
Seward, AK 99664, USA	http://cabinporn.com/image/92532596303	http://41.media.tumblr.com/140887985f070c72232932be6c850002/tumblr_n8vdnkMQ2A1qzwmsso1_1280.jpg	Mariner’s Lair at the Nauti Otter in Seward, Alaska.	60.10416669999999	-149.4422222	http://cabinporn.com/page/42
6364 Brixen im Thale, Austria	http://cabinporn.com/image/92431151102	http://41.media.tumblr.com/abdf6c18a83b4371816002fb827ae9e8/tumblr_n8p7r22wSv1qzwmsso1_1280.jpg	Backcountry cabin in Brixen im Thale, Austria.	47.4497732	12.2513095	http://cabinporn.com/page/42
Cradle Mountain-Lake Saint Clair National Park, Cradle Mountain TAS 7306, Australia	http://cabinporn.com/image/92145389548	http://41.media.tumblr.com/6e235bed0fa8ce887811f9e904e92047/tumblr_n8dyaam2ZR1qzwmsso1_1280.jpg	Kitchen Hut on Cradle Mountain, Lake St. Clair National Park, Tasmania.	-41.8333333	146	http://cabinporn.com/page/42
